[{"no":3008,"name":"Atlanta Supercenter","country":"US","coordinates":[-84.413627,33.755828],"streetAddress":"835 Martin Luther King Jr Drive Nw","city":"Atlanta","stateProvCode":"GA","zip":"30314","phoneNumber":"404-460-2703","sundayOpen":true,"timezone":"EST"},{"no":3775,"name":"Atlanta Supercenter","country":"US","coordinates":[-84.411781,33.803041],"streetAddress":"1801 Howell Mill Rd Nw","city":"Atlanta","stateProvCode":"GA","zip":"30318","phoneNumber":"404-352-5252","sundayOpen":true,"timezone":"EST"},{"no":3709,"name":"Atlanta Supercenter","country":"US","coordinates":[-84.312878,33.719115],"streetAddress":"2427 Gresham Rd Se","city":"Atlanta","stateProvCode":"GA","zip":"30316","phoneNumber":"404-244-3034","sundayOpen":true,"timezone":"EST"},{"no":6998,"name":"East Point Supercenter","country":"US","coordinates":[-84.416522,33.678363],"streetAddress":"844 Cleveland Avenue","city":"East Point","stateProvCode":"GA","zip":"30344","phoneNumber":"404-460-6177","sundayOpen":true,"timezone":"EST"},{"no":3118,"name":"Decatur Supercenter","country":"US","coordinates":[-84.288978,33.792235],"streetAddress":"2525 N Decatur Rd","city":"Decatur","stateProvCode":"GA","zip":"30033","phoneNumber":"404-464-4480","sundayOpen":true,"timezone":"EST"},{"no":5010,"name":"Atlanta Pharmacy","country":"US","coordinates":[-84.4240045,33.6562283],"streetAddress":"1030 Delta Blvd","city":"Atlanta","stateProvCode":"GA","zip":"30354","phoneNumber":"404-305-8890","sundayOpen":true,"timezone":"EST"},{"no":3710,"name":"Decatur Supercenter","country":"US","coordinates":[-84.268408,33.757277],"streetAddress":"3580 Memorial Dr","city":"Decatur","stateProvCode":"GA","zip":"30032","phoneNumber":"404-284-0500","sundayOpen":true,"timezone":"EST"},{"no":3741,"name":"Atlanta Supercenter","country":"US","coordinates":[-84.507908,33.72837],"streetAddress":"1105 Research Center Atlanta Drive Sw","city":"Atlanta","stateProvCode":"GA","zip":"30331","phoneNumber":"404-260-6153","sundayOpen":true,"timezone":"EST"},{"no":3609,"name":"Ellenwood Supercenter","country":"US","coordinates":[-84.292949,33.636377],"streetAddress":"2940 Anvil Block Rd","city":"Ellenwood","stateProvCode":"GA","zip":"30294","phoneNumber":"404-361-6811","sundayOpen":true,"timezone":"EST"},{"no":3621,"name":"Chamblee Supercenter","country":"US","coordinates":[-84.311428,33.888542],"streetAddress":"1871 Chamblee Tucker Rd","city":"Chamblee","stateProvCode":"GA","zip":"30341","phoneNumber":"770-455-0422","sundayOpen":true,"timezone":"EST"},{"no":1047,"name":"Morrow Supercenter","country":"US","coordinates":[-84.340272,33.589722],"streetAddress":"6065 Jonesboro Rd","city":"Morrow","stateProvCode":"GA","zip":"30260","phoneNumber":"770-968-0774","sundayOpen":true,"timezone":"EST"},{"no":3188,"name":"Stone Mountain Supercenter","country":"US","coordinates":[-84.195045,33.799259],"streetAddress":"5935 Memorial Dr","city":"Stone Mountain","stateProvCode":"GA","zip":"30083","phoneNumber":"404-260-6142","sundayOpen":true,"timezone":"EST"},{"no":3401,"name":"College Park Supercenter","country":"US","coordinates":[-84.472179,33.586866],"streetAddress":"6149 Old National Hwy","city":"College Park","stateProvCode":"GA","zip":"30349","phoneNumber":"770-994-9440","sundayOpen":true,"timezone":"EST"},{"no":3205,"name":"Lithia Springs Supercenter","country":"US","coordinates":[-84.6010619,33.7745093],"streetAddress":"1100 Thornton Rd","city":"Lithia Springs","stateProvCode":"GA","zip":"30122","phoneNumber":"770-819-1123","sundayOpen":true,"timezone":"EST"},{"no":1181,"name":"Marietta Supercenter","country":"US","coordinates":[-84.488515,33.909904],"streetAddress":"1785 Cobb Pkwy S","city":"Marietta","stateProvCode":"GA","zip":"30060","phoneNumber":"770-955-0626","sundayOpen":true,"timezone":"EST"},{"no":2584,"name":"Tucker Supercenter","country":"US","coordinates":[-84.205036,33.855743],"streetAddress":"4375 Lawrenceville Hwy","city":"Tucker","stateProvCode":"GA","zip":"30084","phoneNumber":"770-939-2671","sundayOpen":true,"timezone":"EST"},{"no":787,"name":"Riverdale Supercenter","country":"US","coordinates":[-84.410314,33.562448],"streetAddress":"7050 Highway 85","city":"Riverdale","stateProvCode":"GA","zip":"30274","phoneNumber":"770-994-1670","sundayOpen":true,"timezone":"EST"},{"no":2360,"name":"Dunwoody Supercenter","country":"US","coordinates":[-84.3332,33.9333],"streetAddress":"4725 Ashford Dunwoody Rd","city":"Dunwoody","stateProvCode":"GA","zip":"30338","phoneNumber":"770-395-0199","sundayOpen":true,"timezone":"EST"},{"no":1340,"name":"Lithonia Supercenter","country":"US","coordinates":[-84.166977,33.700533],"streetAddress":"5401 Fairington Rd","city":"Lithonia","stateProvCode":"GA","zip":"30038","phoneNumber":"770-593-3540","sundayOpen":true,"timezone":"EST"},{"no":3071,"name":"Tucker Neighborhood Market","country":"US","coordinates":[-84.218458,33.88378],"streetAddress":"3201 Tucker Norcross Rd","city":"Tucker","stateProvCode":"GA","zip":"30084","phoneNumber":"770-225-6010","sundayOpen":true,"timezone":"EST"},{"no":1586,"name":"Austell Supercenter","country":"US","coordinates":[-84.58697,33.85557],"streetAddress":"1133 Ew Connector Sw","city":"Austell","stateProvCode":"GA","zip":"30106","phoneNumber":"770-863-9300","sundayOpen":true,"timezone":"EST"},{"no":5815,"name":"Marietta Neighborhood Market","country":"US","coordinates":[-84.586639,33.882577],"streetAddress":"2909 Austell Rd Sw Suite 100","city":"Marietta","stateProvCode":"GA","zip":"30008","phoneNumber":"770-615-1243","sundayOpen":true,"timezone":"EST"},{"no":3070,"name":"Dunwoody Neighborhood Market","country":"US","coordinates":[-84.269679,33.94189],"streetAddress":"5025 Winters Chapel Rd","city":"Dunwoody","stateProvCode":"GA","zip":"30360","phoneNumber":"770-280-0193","sundayOpen":true,"timezone":"EST"},{"no":3067,"name":"Norcross Supercenter","country":"US","coordinates":[-84.194157,33.894961],"streetAddress":"4975 Jimmy Carter Blvd","city":"Norcross","stateProvCode":"GA","zip":"30093","phoneNumber":"770-225-9882","sundayOpen":true,"timezone":"EST"},{"no":855,"name":"Union City Supercenter","country":"US","coordinates":[-84.5418153,33.5731692],"streetAddress":"4735 Jonesboro Rd","city":"Union City","stateProvCode":"GA","zip":"30291","phoneNumber":"770-964-6921","sundayOpen":true,"timezone":"EST"},{"no":745,"name":"Stockbridge Supercenter","country":"US","coordinates":[-84.25538,33.553185],"streetAddress":"5600 N Henry Blvd","city":"Stockbridge","stateProvCode":"GA","zip":"30281","phoneNumber":"770-389-1709","sundayOpen":true,"timezone":"EST"},{"no":5390,"name":"Marietta Supercenter","country":"US","coordinates":[-84.521428,33.945801],"streetAddress":"210 Cobb Pkwy S","city":"Marietta","stateProvCode":"GA","zip":"30060","phoneNumber":"770-429-9029","sundayOpen":true,"timezone":"EST"},{"no":1184,"name":"Stone Mountain Supercenter","country":"US","coordinates":[-84.1258516,33.8247643],"streetAddress":"1825 Rockbridge Rd","city":"Stone Mountain","stateProvCode":"GA","zip":"30087","phoneNumber":"770-469-8660","sundayOpen":true,"timezone":"EST"},{"no":3611,"name":"Marietta Supercenter","country":"US","coordinates":[-84.636252,33.867392],"streetAddress":"6520 Earnest Barrett Parkway","city":"Marietta","stateProvCode":"GA","zip":"30064","phoneNumber":"770-222-6666","sundayOpen":true,"timezone":"EST"},{"no":3069,"name":"Marietta Neighborhood Market","country":"US","coordinates":[-84.463068,33.98091],"streetAddress":"3101 Roswell Road","city":"Marietta","stateProvCode":"GA","zip":"30062","phoneNumber":"678-695-4959","sundayOpen":true,"timezone":"EST"},{"no":4472,"name":"Lithonia Supercenter","country":"US","coordinates":[-84.084863,33.694644],"streetAddress":"8424 Mall Parkway","city":"Lithonia","stateProvCode":"GA","zip":"30038","phoneNumber":"770-225-0428","sundayOpen":true,"timezone":"EST"},{"no":594,"name":"Fayetteville Supercenter","country":"US","coordinates":[-84.443322,33.481376],"streetAddress":"125 Pavilion Pkwy","city":"Fayetteville","stateProvCode":"GA","zip":"30214","phoneNumber":"770-460-0947","sundayOpen":true,"timezone":"EST"},{"no":3402,"name":"Stockbridge Supercenter","country":"US","coordinates":[-84.235582,33.507466],"streetAddress":"1400 Hudson Bridge Rd","city":"Stockbridge","stateProvCode":"GA","zip":"30281","phoneNumber":"770-474-0123","sundayOpen":true,"timezone":"EST"},{"no":1766,"name":"Marietta Supercenter","country":"US","coordinates":[-84.422495,34.023274],"streetAddress":"3100 Johnson Ferry Rd","city":"Marietta","stateProvCode":"GA","zip":"30062","phoneNumber":"770-640-7225","sundayOpen":true,"timezone":"EST"},{"no":1373,"name":"Lilburn Supercenter","country":"US","coordinates":[-84.110453,33.90295],"streetAddress":"4004 Lawrenceville Hwy Nw","city":"Lilburn","stateProvCode":"GA","zip":"30047","phoneNumber":"770-921-9224","sundayOpen":true,"timezone":"EST"},{"no":3389,"name":"Snellville Supercenter","country":"US","coordinates":[-84.046785,33.807876],"streetAddress":"3435 Centerville Hwy","city":"Snellville","stateProvCode":"GA","zip":"30039","phoneNumber":"770-972-7572","sundayOpen":true,"timezone":"EST"},{"no":2154,"name":"Duluth Supercenter","country":"US","coordinates":[-84.150415,33.970083],"streetAddress":"2635 Pleasant Hill Rd","city":"Duluth","stateProvCode":"GA","zip":"30096","phoneNumber":"770-418-0162","sundayOpen":true,"timezone":"EST"},{"no":1578,"name":"Roswell Supercenter","country":"US","coordinates":[-84.33353,34.045297],"streetAddress":"970 Mansell Rd","city":"Roswell","stateProvCode":"GA","zip":"30076","phoneNumber":"770-993-0533","sundayOpen":true,"timezone":"EST"},{"no":937,"name":"Marietta Supercenter","country":"US","coordinates":[-84.55707,34.019289],"streetAddress":"2795 Chastain Meadows Pkwy","city":"Marietta","stateProvCode":"GA","zip":"30066","phoneNumber":"770-427-4933","sundayOpen":true,"timezone":"EST"},{"no":3074,"name":"Lawrenceville Neighborhood Market","country":"US","coordinates":[-84.085591,33.922428],"streetAddress":"3059 Lawrenceville Hwy","city":"Lawrenceville","stateProvCode":"GA","zip":"30044","phoneNumber":"678-259-0050","sundayOpen":true,"timezone":"EST"},{"no":1488,"name":"Douglasville Supercenter","country":"US","coordinates":[-84.756492,33.732555],"streetAddress":"7001 Concourse Pkwy","city":"Douglasville","stateProvCode":"GA","zip":"30134","phoneNumber":"770-489-7057","sundayOpen":true,"timezone":"EST"},{"no":5363,"name":"Lovejoy Supercenter","country":"US","coordinates":[-84.3256768,33.4425589],"streetAddress":"11465 Tara Blvd","city":"Lovejoy","stateProvCode":"GA","zip":"30250","phoneNumber":"770-471-4451","sundayOpen":true,"timezone":"EST"},{"no":3072,"name":"Snellville Neighborhood Market","country":"US","coordinates":[-84.034228,33.852976],"streetAddress":"2912 W Main St","city":"Snellville","stateProvCode":"GA","zip":"30078","phoneNumber":"770-225-0949","sundayOpen":true,"timezone":"EST"},{"no":618,"name":"Hiram Supercenter","country":"US","coordinates":[-84.758895,33.890811],"streetAddress":"4166 Jimmy Lee Smith Pkwy","city":"Hiram","stateProvCode":"GA","zip":"30141","phoneNumber":"770-439-1028","sundayOpen":true,"timezone":"EST"},{"no":2475,"name":"Conyers Supercenter","country":"US","coordinates":[-83.996654,33.652864],"streetAddress":"1436 Dogwood Dr Se","city":"Conyers","stateProvCode":"GA","zip":"30013","phoneNumber":"770-860-8544","sundayOpen":true,"timezone":"EST"},{"no":3403,"name":"Dallas Supercenter","country":"US","coordinates":[-84.730256,33.935634],"streetAddress":"3615 Marietta Hwy","city":"Dallas","stateProvCode":"GA","zip":"30157","phoneNumber":"770-445-2141","sundayOpen":true,"timezone":"EST"},{"no":575,"name":"Woodstock Supercenter","country":"US","coordinates":[-84.481231,34.084165],"streetAddress":"12182 Highway 92","city":"Woodstock","stateProvCode":"GA","zip":"30188","phoneNumber":"770-516-4719","sundayOpen":true,"timezone":"EST"},{"no":1720,"name":"Snellville Supercenter","country":"US","coordinates":[-84.007537,33.886549],"streetAddress":"1550 Scenic Hwy N","city":"Snellville","stateProvCode":"GA","zip":"30078","phoneNumber":"770-979-2447","sundayOpen":true,"timezone":"EST"},{"no":3388,"name":"Lawrenceville Supercenter","country":"US","coordinates":[-84.025181,33.936752],"streetAddress":"1400 Lawrenceville Hwy","city":"Lawrenceville","stateProvCode":"GA","zip":"30044","phoneNumber":"770-682-1992","sundayOpen":true,"timezone":"EST"},{"no":2941,"name":"Alpharetta Supercenter","country":"US","coordinates":[-84.274352,34.093816],"streetAddress":"5200 Windward Pkwy","city":"Alpharetta","stateProvCode":"GA","zip":"30004","phoneNumber":"770-772-9033","sundayOpen":true,"timezone":"EST"},{"no":3471,"name":"Acworth Supercenter","country":"US","coordinates":[-84.658026,34.028451],"streetAddress":"3105 Cobb Pkwy Nw","city":"Acworth","stateProvCode":"GA","zip":"30152","phoneNumber":"770-974-9291","sundayOpen":true,"timezone":"EST"},{"no":3201,"name":"Mcdonough Supercenter","country":"US","coordinates":[-84.184909,33.432882],"streetAddress":"135 Willow Ln","city":"Mcdonough","stateProvCode":"GA","zip":"30253","phoneNumber":"678-432-2023","sundayOpen":true,"timezone":"EST"},{"no":3461,"name":"Peachtree City Supercenter","country":"US","coordinates":[-84.599962,33.401226],"streetAddress":"2717 Highway 54","city":"Peachtree City","stateProvCode":"GA","zip":"30269","phoneNumber":"770-632-6373","sundayOpen":true,"timezone":"EST"},{"no":4185,"name":"Cumming Supercenter","country":"US","coordinates":[-84.1737497,34.1001327],"streetAddress":"2395 Peachtree Pkwy","city":"Cumming","stateProvCode":"GA","zip":"30041","phoneNumber":"770-406-5165","sundayOpen":true,"timezone":"EST"},{"no":548,"name":"Lawrenceville Supercenter","country":"US","coordinates":[-83.996583,33.971139],"streetAddress":"630 Collins Hill Rd","city":"Lawrenceville","stateProvCode":"GA","zip":"30046","phoneNumber":"770-995-0102","sundayOpen":true,"timezone":"EST"},{"no":3748,"name":"Acworth Supercenter","country":"US","coordinates":[-84.698029,34.048696],"streetAddress":"3826 Cobb Pkwy Nw","city":"Acworth","stateProvCode":"GA","zip":"30101","phoneNumber":"770-966-1226","sundayOpen":true,"timezone":"EST"},{"no":4558,"name":"Covington Supercenter","country":"US","coordinates":[-83.959197,33.577117],"streetAddress":"4200 Salem Rd","city":"Covington","stateProvCode":"GA","zip":"30016","phoneNumber":"678-212-3195","sundayOpen":true,"timezone":"EST"},{"no":5275,"name":"Woodstock Supercenter","country":"US","coordinates":[-84.584433,34.112862],"streetAddress":"6435 Bells Ferry Rd","city":"Woodstock","stateProvCode":"GA","zip":"30189","phoneNumber":"770-926-2606","sundayOpen":true,"timezone":"EST"},{"no":3462,"name":"Suwanee Supercenter","country":"US","coordinates":[-84.050564,34.03644],"streetAddress":"3245 Lawrenceville Suwanee Rd","city":"Suwanee","stateProvCode":"GA","zip":"30024","phoneNumber":"678-482-5441","sundayOpen":true,"timezone":"EST"},{"no":5252,"name":"Loganville Supercenter","country":"US","coordinates":[-83.911143,33.840982],"streetAddress":"4221 Atlanta Hwy","city":"Loganville","stateProvCode":"GA","zip":"30052","phoneNumber":"770-554-7481","sundayOpen":true,"timezone":"EST"},{"no":4436,"name":"Alpharetta Supercenter","country":"US","coordinates":[-84.24936,34.150322],"streetAddress":"5455 Atlanta Hwy","city":"Alpharetta","stateProvCode":"GA","zip":"30004","phoneNumber":"770-475-4101","sundayOpen":true,"timezone":"EST"},{"no":5814,"name":"Holly Springs Supercenter","country":"US","coordinates":[-84.50442,34.185397],"streetAddress":"2200 Holly Springs Parkway","city":"Holly Springs","stateProvCode":"GA","zip":"30115","phoneNumber":"770-213-6519","sundayOpen":true,"timezone":"EST"},{"no":5709,"name":"Locust Grove Supercenter","country":"US","coordinates":[-84.120553,33.358138],"streetAddress":"4949 Bill Gardner Pkwy","city":"Locust Grove","stateProvCode":"GA","zip":"30248","phoneNumber":"678-734-3395","sundayOpen":true,"timezone":"EST"},{"no":2732,"name":"Villa Rica Supercenter","country":"US","coordinates":[-84.934926,33.720124],"streetAddress":"600 Carrollton Villa Rica Hwy","city":"Villa Rica","stateProvCode":"GA","zip":"30180","phoneNumber":"770-459-6601","sundayOpen":true,"timezone":"EST"},{"no":494,"name":"Newnan Supercenter","country":"US","coordinates":[-84.743664,33.393498],"streetAddress":"1025 Highway 34 E","city":"Newnan","stateProvCode":"GA","zip":"30265","phoneNumber":"770-502-0677","sundayOpen":true,"timezone":"EST"},{"no":1314,"name":"Buford Supercenter","country":"US","coordinates":[-83.989918,34.08896],"streetAddress":"3795 Buford Dr","city":"Buford","stateProvCode":"GA","zip":"30519","phoneNumber":"770-271-8210","sundayOpen":true,"timezone":"EST"},{"no":932,"name":"Griffin Supercenter","country":"US","coordinates":[-84.2967,33.272396],"streetAddress":"1569 N Expressway","city":"Griffin","stateProvCode":"GA","zip":"30223","phoneNumber":"770-229-5040","sundayOpen":true,"timezone":"EST"},{"no":459,"name":"Covington Supercenter","country":"US","coordinates":[-83.830231,33.610856],"streetAddress":"10300 Industrial Blvd Ne","city":"Covington","stateProvCode":"GA","zip":"30014","phoneNumber":"770-787-8030","sundayOpen":true,"timezone":"EST"},{"no":878,"name":"Cumming Supercenter","country":"US","coordinates":[-84.129022,34.183876],"streetAddress":"1500 Market Place Blvd","city":"Cumming","stateProvCode":"GA","zip":"30041","phoneNumber":"770-889-3436","sundayOpen":true,"timezone":"EST"},{"no":3786,"name":"Buford Supercenter","country":"US","coordinates":[-83.921922,34.078384],"streetAddress":"3250 Sardis Church Rd","city":"Buford","stateProvCode":"GA","zip":"30519","phoneNumber":"678-546-6464","sundayOpen":true,"timezone":"EST"},{"no":518,"name":"Canton Supercenter","country":"US","coordinates":[-84.461178,34.255416],"streetAddress":"1550 Riverstone Pkwy","city":"Canton","stateProvCode":"GA","zip":"30114","phoneNumber":"770-479-9891","sundayOpen":true,"timezone":"EST"},{"no":780,"name":"Monroe Supercenter","country":"US","coordinates":[-83.742318,33.798413],"streetAddress":"2050 W Spring St","city":"Monroe","stateProvCode":"GA","zip":"30655","phoneNumber":"770-267-4527","sundayOpen":true,"timezone":"EST"},{"no":615,"name":"Cartersville Supercenter","country":"US","coordinates":[-84.787531,34.202913],"streetAddress":"101 Market Place Blvd","city":"Cartersville","stateProvCode":"GA","zip":"30121","phoneNumber":"770-382-0182","sundayOpen":true,"timezone":"EST"},{"no":7185,"name":"Cumming Supercenter","country":"US","coordinates":[-84.087093,34.267078],"streetAddress":"3655 Browns Bridge Rd","city":"Cumming","stateProvCode":"GA","zip":"30028","phoneNumber":"770-203-4860","sundayOpen":true,"timezone":"EST"},{"no":520,"name":"Winder Supercenter","country":"US","coordinates":[-83.756707,33.990029],"streetAddress":"440 Atlanta Hwy N.w.","city":"Winder","stateProvCode":"GA","zip":"30680","phoneNumber":"770-867-8642","sundayOpen":true,"timezone":"EST"},{"no":4409,"name":"Rockmart Supercenter","country":"US","coordinates":[-85.030381,34.013127],"streetAddress":"1801 Nathan Dean Byp","city":"Rockmart","stateProvCode":"GA","zip":"30153","phoneNumber":"678-757-8766","sundayOpen":true,"timezone":"EST"},{"no":722,"name":"Carrollton Supercenter","country":"US","coordinates":[-85.0772931,33.5432197],"streetAddress":"1735 S Highway 27","city":"Carrollton","stateProvCode":"GA","zip":"30117","phoneNumber":"770-834-3513","sundayOpen":true,"timezone":"EST"},{"no":3627,"name":"Oakwood Supercenter","country":"US","coordinates":[-83.874813,34.231419],"streetAddress":"3875 Mundy Mill Rd","city":"Oakwood","stateProvCode":"GA","zip":"30566","phoneNumber":"770-535-6543","sundayOpen":true,"timezone":"EST"},{"no":856,"name":"Bremen Supercenter","country":"US","coordinates":[-85.163517,33.70787],"streetAddress":"404 Hwy 27 No. Bypas","city":"Bremen","stateProvCode":"GA","zip":"30110","phoneNumber":"770-537-5531","sundayOpen":true,"timezone":"EST"},{"no":3874,"name":"Dawsonville Supercenter","country":"US","coordinates":[-84.041709,34.3549547],"streetAddress":"98 Power Center Dr","city":"Dawsonville","stateProvCode":"GA","zip":"30534","phoneNumber":"706-265-8787","sundayOpen":true,"timezone":"EST"},{"no":2731,"name":"Gainesville Neighborhood Market","country":"US","coordinates":[-83.8752864,34.2801955],"streetAddress":"2892 Browns Bridge Rd","city":"Gainesville","stateProvCode":"GA","zip":"30504","phoneNumber":"678-971-6367","sundayOpen":true,"timezone":"EST"},{"no":510,"name":"Gainesville Supercenter","country":"US","coordinates":[-83.8506,34.2917],"streetAddress":"400 Shallowford Rd Nw","city":"Gainesville","stateProvCode":"GA","zip":"30504","phoneNumber":"770-503-9300","sundayOpen":true,"timezone":"EST"}]