BusinessSegment,BusinessFunction,BusinessUnit,Facility,Division,Region,Market,StreetAddress,City,State,State_Name,Zip,Latitude,Longitude,STORE_TYPE_CODE,Store_Type_Text,OPEN_STATUS_CODE,OPEN_STATUS_DESC,OPEN_DATE,CLOSE_DATE,Facility_Sqft,DC_TYPE,DC_TYPE_DESC,SVC,SVC watch list,RPZ Rate,Complex Store,Complex Market,Turnaround,Academy,RPZ Watch List,Challenging,Base Division,Current_HC,County Name,FY20 Watch List
Walmart,Field Facility,Supercenter,1,B - CENTRAL,42 - ARKANSAS/ NE OK,323,2110 W Walnut St,Rogers,AR,Arkansas,72756,36.3339429284647,-94.1475050791985,U,SuperCenter,5,"Old,more than 13 months since re-grand",1962-07-02,,201314,0,NOT ASSIGNED,WM >=$80MM,N,0,N,N,N,N,,All Other,1,415,Benton,
Walmart,Field Facility,Supercenter,2,B - CENTRAL,42 - ARKANSAS/ NE OK,322,161 N Walmart Dr,Harrison,AR,Arkansas,72601,36.2666813275594,-93.1388021261507,U,SuperCenter,5,"Old,more than 13 months since re-grand",1964-08-01,,181701,0,NOT ASSIGNED,WM >=$80MM,N,0,N,N,N,N,,All Other,1,350,Boone,
Walmart,Field Facility,Supercenter,3,A - SOUTHEAST,2 - NORTH GEORGIA,21,30983 Highway 441 S,Commerce,GA,Georgia,30529,34.2461213237222,-83.4587284292705,U,SuperCenter,5,"Old,more than 13 months since re-grand",1988-04-12,,151980,0,NOT ASSIGNED,WM >=$80MM,N,0,N,N,N,N,,All Other,1,283,Banks,
Walmart,Field Facility,Supercenter,4,B - CENTRAL,42 - ARKANSAS/ NE OK,323,2901 Highway 412 E,Siloam Springs,AR,Arkansas,72761,36.1812570937384,-94.5127559559901,U,SuperCenter,5,"Old,more than 13 months since re-grand",1965-08-01,,184435,0,NOT ASSIGNED,WM >=$80MM,N,0,N,N,N,N,,All Other,1,367,Benton,
Walmart,Field Facility,Supercenter,5,B - CENTRAL,42 - ARKANSAS/ NE OK,326,1155 Highway 65 N,Conway,AR,Arkansas,72032,35.109314910729,-92.4403282114797,U,SuperCenter,5,"Old,more than 13 months since re-grand",1972-05-01,,180161,0,NOT ASSIGNED,WM >=$80MM,N,0,N,N,N,N,,All Other,1,335,FAULKNER,
Walmart,Support,Walmart US,6,X - RETAIL - ADMIN SUBDIVISION X,98 - RETAIL - ADMIN REGION 98,998,702 SW 8th St,Bentonville,AR,Arkansas,72716,36.3644094377361,-94.2167818941327,G,General Office,2,"New,open 13 months or more",1997-08-01,,0,0,NOT ASSIGNED,,,0,All Other,All Other,All Other,All Other,,All Other,1,0,Benton,
Walmart,Field Facility,Supercenter,7,B - CENTRAL,42 - ARKANSAS/ NE OK,326,9053 Highway 107,Sherwood,AR,Arkansas,72120,34.837136417794,-92.2317864252534,U,SuperCenter,5,"Old,more than 13 months since re-grand",1967-10-01,,206528,0,NOT ASSIGNED,WM >=$80MM,N,0,N,N,N,N,,All Other,1,343,Pulaski,
Walmart,Field Facility,Supercenter,8,B - CENTRAL,42 - ARKANSAS/ NE OK,326,1621 E Harding St,Morrilton,AR,Arkansas,72110,35.1691396182661,-92.7241510724643,U,SuperCenter,5,"Old,more than 13 months since re-grand",1967-10-01,,123369,0,NOT ASSIGNED,WM $40MM - $60MM,N,0,N,N,N,N,,All Other,1,215,Conway,
Walmart,Field Facility,Supercenter,9,B - CENTRAL,40 - MISSOURI/ E KS,335,1303 S Main St,Sikeston,MO,Missouri,63801,36.8591529514442,-89.5835344059573,U,SuperCenter,5,"Old,more than 13 months since re-grand",1968-03-01,,205540,0,NOT ASSIGNED,WM >=$80MM,N,0,N,N,N,N,,All Other,1,321,New Madrid,
Walmart,Field Facility,Supercenter,10,B - CENTRAL,42 - ARKANSAS/ NE OK,347,2020 S Muskogee Ave,Tahlequah,OK,Oklahoma,74464,35.8889463547971,-94.9772684271168,U,SuperCenter,5,"Old,more than 13 months since re-grand",1968-07-30,,182721,0,NOT ASSIGNED,WM >=$80MM,N,0,N,N,N,N,,All Other,1,355,Cherokee,
Walmart,Field Facility,Supercenter,11,B - CENTRAL,42 - ARKANSAS/ NE OK,328,65 Wal Mart Dr,Mountain Home,AR,Arkansas,72653,36.3567619194008,-92.3410590594393,U,SuperCenter,5,"Old,more than 13 months since re-grand",1968-03-01,,220167,0,NOT ASSIGNED,WM >=$80MM,N,0,N,N,N,N,,All Other,1,401,Baxter,
Walmart,Field Facility,Supercenter,12,B - CENTRAL,42 - ARKANSAS/ NE OK,347,1500 S Lynn Riggs Blvd,Claremore,OK,Oklahoma,74017,36.2949656230148,-95.6291025592207,U,SuperCenter,5,"Old,more than 13 months since re-grand",1968-07-01,,173675,0,NOT ASSIGNED,WM >=$80MM,N,0,N,N,N,N,,All Other,1,294,Rogers,
Walmart,Field Facility,Supercenter,13,B - CENTRAL,40 - MISSOURI/ E KS,334,2705 S Grand Ave,Carthage,MO,Missouri,64836,37.140240554096,-94.310732191408,U,SuperCenter,5,"Old,more than 13 months since re-grand",1968-11-01,,152425,0,NOT ASSIGNED,WM $60MM - $80MM,N,0,N,N,N,N,,All Other,1,266,Jasper,
Walmart,Field Facility,Supercenter,14,B - CENTRAL,40 - MISSOURI/ E KS,357,1800 S Jefferson Ave,Lebanon,MO,Missouri,65536,37.6624651247159,-92.6492851904074,U,SuperCenter,5,"Old,more than 13 months since re-grand",1969-04-01,,179958,0,NOT ASSIGNED,WM >=$80MM,N,0,N,N,N,N,,All Other,1,351,Laclede,
Walmart,Field Facility,Supercenter,15,B - CENTRAL,40 - MISSOURI/ E KS,333,1310 Preacher Roe Blvd,West Plains,MO,Missouri,65775,36.7144243737689,-91.8740418579322,U,SuperCenter,5,"Old,more than 13 months since re-grand",1969-05-06,,201788,0,NOT ASSIGNED,WM >=$80MM,N,0,N,N,N,N,,All Other,1,336,Howell,
Walmart,Field Facility,Supercenter,16,B - CENTRAL,42 - ARKANSAS/ NE OK,321,2214 Fayetteville Rd,Van Buren,AR,Arkansas,72956,35.4689280127798,-94.3561416391358,U,SuperCenter,5,"Old,more than 13 months since re-grand",1969-04-01,,188222,0,NOT ASSIGNED,WM >=$80MM,N,0,N,N,N,N,,All Other,1,312,Crawford,
Walmart,Field Facility,Supercenter,17,B - CENTRAL,40 - MISSOURI/ E KS,334,3200 Lusk Dr,Neosho,MO,Missouri,64850,36.8380264371503,-94.3952088426475,U,SuperCenter,5,"Old,more than 13 months since re-grand",1969-05-01,,180790,0,NOT ASSIGNED,WM >=$80MM,N,0,N,N,N,N,,All Other,1,304,Newton,
Walmart,Field Facility,Supercenter,18,B - CENTRAL,42 - ARKANSAS/ NE OK,328,1211 Highway 367 N,Newport,AR,Arkansas,72112,35.617058490566,-91.2520286898359,U,SuperCenter,5,"Old,more than 13 months since re-grand",1969-11-01,,123334,0,NOT ASSIGNED,WM $40MM - $60MM,N,0,N,N,N,N,,All Other,1,180,Jackson,
Walmart,Field Facility,Supercenter,19,B - CENTRAL,40 - MISSOURI/ E KS,335,333 S Westwood Blvd,Poplar Bluff,MO,Missouri,63901,36.7551733651331,-90.4085023757291,U,SuperCenter,2,"New,open 13 months or more",1990-04-03,,212503,0,NOT ASSIGNED,WM >=$80MM,N,0,N,N,N,Y,,All Other,1,375,Butler,
Walmart,Field Facility,Supercenter,20,B - CENTRAL,40 - MISSOURI/ E KS,357,1712 E Ohio St,Clinton,MO,Missouri,64735,38.3660887602462,-93.7493298890531,U,SuperCenter,5,"Old,more than 13 months since re-grand",1970-10-01,,151980,0,NOT ASSIGNED,WM $60MM - $80MM,N,0,N,N,N,N,,All Other,1,236,Henry,
Walmart,Field Facility,Supercenter,21,B - CENTRAL,40 - MISSOURI/ E KS,336,185 Saint Robert Blvd,Saint Robert,MO,Missouri,65584,37.8241844997572,-92.1534590077973,U,SuperCenter,5,"Old,more than 13 months since re-grand",1970-03-01,,184435,0,NOT ASSIGNED,WM >=$80MM,N,0,N,N,N,N,,All Other,1,323,Pulaski,
Walmart,Field Facility,Supercenter,22,B - CENTRAL,42 - ARKANSAS/ NE OK,347,4901 S Mill St,Pryor,OK,Oklahoma,74361,36.2638133291237,-95.3327631717139,U,SuperCenter,5,"Old,more than 13 months since re-grand",1970-10-01,,183993,0,NOT ASSIGNED,WM >=$80MM,N,0,N,N,N,N,,All Other,1,276,Mayes,
Walmart,Field Facility,Supercenter,23,B - CENTRAL,13 - LOUISIANA/ S MS,135,1201 N Service Rd E,Ruston,LA,Louisiana,71270,32.5408471168537,-92.6240524644222,U,SuperCenter,5,"Old,more than 13 months since re-grand",1970-11-01,,199026,0,NOT ASSIGNED,WM >=$80MM,N,0,N,N,N,N,,All Other,1,348,Lincoln,
Walmart,Field Facility,Supercenter,24,B - CENTRAL,42 - ARKANSAS/ NE OK,326,2000 John Harden Dr,Jacksonville,AR,Arkansas,72076,34.8846016110525,-92.1098356727498,U,SuperCenter,5,"Old,more than 13 months since re-grand",1971-04-01,,219750,0,NOT ASSIGNED,WM $60MM - $80MM,N,0,N,N,N,N,,All Other,1,290,Pulaski,
Walmart,Field Facility,Supercenter,25,B - CENTRAL,43 - S IL/ W INDIANA,339,4820 S Clark St,Mexico,MO,Missouri,65265,39.1203285874191,-91.8934905268268,U,SuperCenter,5,"Old,more than 13 months since re-grand",1971-02-01,,183917,0,NOT ASSIGNED,WM $40MM - $60MM,N,0,N,N,N,N,,All Other,1,251,Audrain,
Walmart,Field Facility,Supercenter,26,B - CENTRAL,40 - MISSOURI/ E KS,411,5000 10th Ave,Leavenworth,KS,Kansas,66048,39.2692359334221,-94.9281488163838,U,SuperCenter,5,"Old,more than 13 months since re-grand",1970-11-01,,184129,0,NOT ASSIGNED,WM >=$80MM,N,0,N,N,N,N,,All Other,1,312,Leavenworth,
Walmart,Field Facility,Supercenter,27,B - CENTRAL,40 - MISSOURI/ E KS,336,1101 W Highway 32,Salem,MO,Missouri,65560,37.6359328867719,-91.5460429099686,U,SuperCenter,5,"Old,more than 13 months since re-grand",1971-02-01,,109630,0,NOT ASSIGNED,WM $40MM - $60MM,N,0,N,N,N,N,,All Other,1,171,Dent,
Walmart,Field Facility,Supercenter,28,B - CENTRAL,42 - ARKANSAS/ NE OK,347,2415 N Main St,Miami,OK,Oklahoma,74354,36.9038752224913,-94.8777461217591,U,SuperCenter,5,"Old,more than 13 months since re-grand",1971-05-01,,191276,0,NOT ASSIGNED,WM $60MM - $80MM,N,0,N,N,N,N,,All Other,1,271,Ottawa,
Walmart,Field Facility,Supercenter,29,B - CENTRAL,40 - MISSOURI/ E KS,359,724 W Stadium Blvd Blv,Jefferson City,MO,Missouri,65109,38.5797831511213,-92.216156111391,U,SuperCenter,5,"Old,more than 13 months since re-grand",1971-08-24,,215308,0,NOT ASSIGNED,WM >=$80MM,N,0,N,N,N,N,,All Other,1,377,Cole,
Walmart,Field Facility,Supercenter,30,B - CENTRAL,40 - MISSOURI/ E KS,335,2025 W Business US Highway 60,Dexter,MO,Missouri,63841,36.8021049540784,-89.9955302368496,U,SuperCenter,5,"Old,more than 13 months since re-grand",1971-11-01,,158129,0,NOT ASSIGNED,WM $60MM - $80MM,N,0,N,N,N,N,,All Other,1,243,Stoddard,
Walmart,Field Facility,Supercenter,31,B - CENTRAL,42 - ARKANSAS/ NE OK,351,3108 N Broadway St,Poteau,OK,Oklahoma,74953,35.0934210581965,-94.631415454136,U,SuperCenter,5,"Old,more than 13 months since re-grand",1971-06-01,,179648,0,NOT ASSIGNED,WM >=$80MM,N,0,N,N,N,N,,All Other,1,275,Le Flore,
Walmart,Field Facility,Supercenter,32,B - CENTRAL,40 - MISSOURI/ E KS,333,2050 W 76 Country Blvd,Branson,MO,Missouri,65616,36.6404755304306,-93.2585064829945,R,Regular Wal-Mart,5,"Old,more than 13 months since re-grand",1971-06-01,,114188,0,NOT ASSIGNED,WM $40MM - $60MM,N,0,N,N,N,N,,All Other,1,156,Taney,
Walmart,Field Facility,Supercenter,33,B - CENTRAL,42 - ARKANSAS/ NE OK,325,1710 S 4th St,Nashville,AR,Arkansas,71852,33.9241511330214,-93.8556046056772,U,SuperCenter,5,"Old,more than 13 months since re-grand",1971-06-01,,111075,0,NOT ASSIGNED,WM $40MM - $60MM,N,0,N,N,N,N,,All Other,1,175,Howard,
Walmart,Field Facility,Supercenter,34,B - CENTRAL,40 - MISSOURI/ E KS,334,2250 Lincoln Ave,Nevada,MO,Missouri,64772,37.8342187886358,-94.3270830539216,U,SuperCenter,5,"Old,more than 13 months since re-grand",1971-11-01,,155078,0,NOT ASSIGNED,WM $60MM - $80MM,N,0,N,N,N,N,,All Other,1,251,Vernon,
Walmart,Field Facility,Supercenter,35,M - WEST,51 - NE/ IA/ CENTRAL IL,407,101 Bluemont Ave,Manhattan,KS,Kansas,66502,39.1859763151265,-96.5556194227527,U,SuperCenter,5,"Old,more than 13 months since re-grand",1971-10-01,,216557,0,NOT ASSIGNED,WM >=$80MM,N,0,N,N,N,N,,All Other,1,390,Riley,
Walmart,Field Facility,Supercenter,36,B - CENTRAL,42 - ARKANSAS/ NE OK,329,2802 W Kingshighway,Paragould,AR,Arkansas,72450,36.0598117848457,-90.5234290167523,U,SuperCenter,5,"Old,more than 13 months since re-grand",1971-11-01,,181183,0,NOT ASSIGNED,WM >=$80MM,N,0,N,N,N,N,,All Other,1,335,Greene,
Walmart,Field Facility,Supercenter,37,B - CENTRAL,40 - MISSOURI/ E KS,335,707 Walton Dr,Farmington,MO,Missouri,63640,37.789531105935,-90.4340896956326,U,SuperCenter,5,"Old,more than 13 months since re-grand",1971-09-01,,186299,0,NOT ASSIGNED,WM >=$80MM,N,0,N,N,N,N,,All Other,1,349,Saint Francois,
Walmart,Field Facility,Supercenter,38,B - CENTRAL,44 - OK/ NW TEXAS/ W TEXAS,47,1907 E Washington St,Idabel,OK,Oklahoma,74745,33.8956571284715,-94.8029187193475,U,SuperCenter,5,"Old,more than 13 months since re-grand",1971-12-09,,115117,0,NOT ASSIGNED,WM $40MM - $60MM,N,0,N,N,N,N,,All Other,1,258,McCurtain,
Walmart,Field Facility,Supercenter,39,B - CENTRAL,40 - MISSOURI/ E KS,410,2500 S Main St,Fort Scott,KS,Kansas,66701,37.8078519472969,-94.7054832704404,U,SuperCenter,5,"Old,more than 13 months since re-grand",1972-03-01,,159492,0,NOT ASSIGNED,WM $40MM - $60MM,N,0,N,N,N,N,,All Other,1,203,Bourbon,
Walmart,Field Facility,Supercenter,40,B - CENTRAL,40 - MISSOURI/ E KS,359,1301 E Highway 24,Moberly,MO,Missouri,65270,39.4459099486522,-92.4198417230171,U,SuperCenter,5,"Old,more than 13 months since re-grand",1971-11-01,,177538,0,NOT ASSIGNED,WM >=$80MM,N,0,N,N,N,N,,All Other,1,259,Randolph,
Walmart,Field Facility,Supercenter,41,B - CENTRAL,42 - ARKANSAS/ NE OK,345,4000 SE Green Country Rd,Bartlesville,OK,Oklahoma,74006,36.7396615893798,-95.932700535933,U,SuperCenter,5,"Old,more than 13 months since re-grand",1972-05-01,,199018,0,NOT ASSIGNED,WM >=$80MM,N,0,N,N,N,N,,All Other,1,397,Washington,
Walmart,Field Facility,Supercenter,42,B - CENTRAL,40 - MISSOURI/ E KS,410,1863 CR 5300,Coffeyville,KS,Kansas,67337,37.04315,-95.5776518061581,U,SuperCenter,5,"Old,more than 13 months since re-grand",1973-02-01,,149161,0,NOT ASSIGNED,WM $40MM - $60MM,N,0,N,N,N,N,,All Other,1,183,Montgomery,
Walmart,Field Facility,Supercenter,43,M - WEST,51 - NE/ IA/ CENTRAL IL,407,521 E Chestnut St,Junction City,KS,Kansas,66441,39.021625861736,-96.8207246467946,U,SuperCenter,5,"Old,more than 13 months since re-grand",1972-05-01,,165985,0,NOT ASSIGNED,WM >=$80MM,Y,0,N,N,N,N,,All Other,1,313,Geary,
Walmart,Field Facility,Supercenter,44,B - CENTRAL,40 - MISSOURI/ E KS,336,1802 S Business 54,Eldon,MO,Missouri,65026,38.3348439865385,-92.5857338320493,R,Regular Wal-Mart,5,"Old,more than 13 months since re-grand",1972-02-01,,47558,0,NOT ASSIGNED,WM <$20MM,N,0,N,N,N,N,,All Other,1,76,Miller,
Walmart,Field Facility,Supercenter,45,B - CENTRAL,42 - ARKANSAS/ NE OK,329,1815 E Highland Dr,Jonesboro,AR,Arkansas,72401,35.8210757355363,-90.685477854903,U,SuperCenter,5,"Old,more than 13 months since re-grand",1972-08-01,,177118,0,NOT ASSIGNED,WM >=$80MM,N,0,N,N,N,N,,All Other,1,364,Craighead,
Walmart,Field Facility,Supercenter,46,B - CENTRAL,40 - MISSOURI/ E KS,357,2451 S Springfield Ave,Bolivar,MO,Missouri,65613,37.5907650757736,-93.4016805255674,U,SuperCenter,5,"Old,more than 13 months since re-grand",1972-08-01,,191741,0,NOT ASSIGNED,WM >=$80MM,N,0,N,N,N,N,,All Other,1,338,Polk,
Walmart,Field Facility,Supercenter,47,B - CENTRAL,42 - ARKANSAS/ NE OK,351,1101 W Ruth Ave,Sallisaw,OK,Oklahoma,74955,35.4493720640114,-94.8016793952759,U,SuperCenter,5,"Old,more than 13 months since re-grand",1972-07-01,,155850,0,NOT ASSIGNED,WM $60MM - $80MM,N,0,N,N,N,N,,All Other,1,264,Sequoyah,
Walmart,Field Facility,Supercenter,48,B - CENTRAL,40 - MISSOURI/ E KS,334,885 E US Highway 60,Monett,MO,Missouri,65708,36.9136647073381,-93.9031094181095,U,SuperCenter,5,"Old,more than 13 months since re-grand",1972-11-01,,149704,0,NOT ASSIGNED,WM $60MM - $80MM,N,0,N,N,N,N,,All Other,1,214,Barry,
Walmart,Field Facility,Supercenter,49,B - CENTRAL,44 - OK/ NW TEXAS/ W TEXAS,47,1911 E Jackson St,Hugo,OK,Oklahoma,74743,34.0063637635178,-95.4898276310429,U,SuperCenter,5,"Old,more than 13 months since re-grand",1972-10-01,,107356,0,NOT ASSIGNED,WM $40MM - $60MM,N,0,N,N,N,N,,All Other,1,170,Choctaw,
Walmart,Field Facility,Supercenter,50,B - CENTRAL,42 - ARKANSAS/ NE OK,347,268 S 7th St,Vinita,OK,Oklahoma,74301,36.6314,-95.143339116265,U,SuperCenter,5,"Old,more than 13 months since re-grand",1973-09-01,,108748,0,NOT ASSIGNED,WM $40MM - $60MM,N,0,N,N,N,N,,All Other,1,163,Craig,
Walmart,Field Facility,Supercenter,51,B - CENTRAL,43 - S IL/ W INDIANA,339,1701 N Bluff St,Fulton,MO,Missouri,65251,38.8632032388101,-91.9440668142222,U,SuperCenter,5,"Old,more than 13 months since re-grand",1973-05-01,,109630,0,NOT ASSIGNED,WM $40MM - $60MM,N,0,N,N,N,N,,All Other,1,211,Callaway,
Walmart,Field Facility,Supercenter,52,B - CENTRAL,42 - ARKANSAS/ NE OK,325,1601 Albert Pike Rd,Hot Springs,AR,Arkansas,71913,34.4929637061477,-93.0895483739864,U,SuperCenter,5,"Old,more than 13 months since re-grand",1972-07-01,,200908,0,NOT ASSIGNED,WM >=$80MM,Y,0,N,N,N,N,,All Other,1,360,Garland,
Walmart,Field Facility,Supercenter,53,T - RETAIL - ADMIN SUBDIVISION T,99 - RETAIL - ADMIN REGION 99,999,0053 Tba,Bentonville,AR,Arkansas,72716,36.36429,-94.21697,G,General Office,7,Closed,1993-02-23,2009-01-30,1,0,NOT ASSIGNED,,N,0,N,N,N,N,,All Other,1,0,Benton,
Walmart,Field Facility,Supercenter,54,B - CENTRAL,42 - ARKANSAS/ NE OK,322,2004 S Pleasant St,Springdale,AR,Arkansas,72764,36.166083515065,-94.1438098078447,U,SuperCenter,5,"Old,more than 13 months since re-grand",1972-06-01,,184412,0,NOT ASSIGNED,WM $60MM - $80MM,N,0,N,N,N,N,,All Other,1,303,Washington,
Walmart,Field Facility,Supercenter,55,B - CENTRAL,42 - ARKANSAS/ NE OK,321,1400 E Main St,Booneville,AR,Arkansas,72927,35.1415208256912,-93.9039498355288,U,SuperCenter,5,"Old,more than 13 months since re-grand",1972-10-01,,102576,0,NOT ASSIGNED,WM $20MM - $40MM,N,0,N,N,N,N,,All Other,1,154,Logan,
Walmart,Field Facility,Supercenter,56,B - CENTRAL,40 - MISSOURI/ E KS,333,1309 NW 12th Ave,Ava,MO,Missouri,65608,36.961460003241,-92.6756645674535,U,SuperCenter,5,"Old,more than 13 months since re-grand",1973-08-01,,107356,0,NOT ASSIGNED,WM $40MM - $60MM,N,0,N,N,N,N,,All Other,1,158,DOUGLAS,
Walmart,Field Facility,Supercenter,57,B - CENTRAL,42 - ARKANSAS/ NE OK,328,1600 W Main St,Walnut Ridge,AR,Arkansas,72476,36.0751167847525,-90.9740636014419,R,Regular Wal-Mart,5,"Old,more than 13 months since re-grand",1972-10-01,,62928,0,NOT ASSIGNED,WM $20MM - $40MM,N,0,N,N,N,N,,All Other,1,104,Lawrence,
Walmart,Field Facility,Supercenter,58,B - CENTRAL,42 - ARKANSAS/ NE OK,325,2409 E Main St,Russellville,AR,Arkansas,72802,35.2782881509625,-93.1047563031928,U,SuperCenter,5,"Old,more than 13 months since re-grand",1973-05-01,,203091,0,NOT ASSIGNED,WM >=$80MM,N,0,N,N,N,N,,All Other,1,406,Pope,
Walmart,Field Facility,Supercenter,59,B - CENTRAL,40 - MISSOURI/ E KS,334,1501 S Range Line Rd,Joplin,MO,Missouri,64804,37.0737386775339,-94.4774733073338,U,SuperCenter,5,"Old,more than 13 months since re-grand",1972-05-01,,184312,0,NOT ASSIGNED,WM >=$80MM,N,0,N,N,N,Y,,All Other,1,390,Jasper,
Walmart,Field Facility,Supercenter,60,B - CENTRAL,43 - S IL/ W INDIANA,339,101 Highway 47 E,Troy,MO,Missouri,63379,38.9869084012468,-90.9810319466144,U,SuperCenter,5,"Old,more than 13 months since re-grand",1975-03-01,,147678,0,NOT ASSIGNED,WM >=$80MM,N,0,N,N,N,N,,All Other,1,325,Lincoln,
Walmart,Field Facility,Supercenter,61,B - CENTRAL,40 - MISSOURI/ E KS,361,301 E Cooper Blvd,Warrensburg,MO,Missouri,64093,38.7788953529844,-93.7355448762628,U,SuperCenter,5,"Old,more than 13 months since re-grand",1972-11-01,,202597,0,NOT ASSIGNED,WM >=$80MM,N,0,N,N,N,N,,All Other,1,320,Johnson,
Walmart,Field Facility,Supercenter,62,B - CENTRAL,42 - ARKANSAS/ NE OK,329,3700 E Main St,Blytheville,AR,Arkansas,72315,35.9289571231025,-89.8712919922477,U,SuperCenter,5,"Old,more than 13 months since re-grand",1972-11-01,,183211,0,NOT ASSIGNED,WM $60MM - $80MM,N,0,N,N,N,N,,All Other,1,248,Mississippi,
Walmart,Field Facility,Supercenter,63,B - CENTRAL,42 - ARKANSAS/ NE OK,347,410 S Dewey Ave,Wagoner,OK,Oklahoma,74467,35.9572729507184,-95.3953927321455,U,SuperCenter,5,"Old,more than 13 months since re-grand",1973-09-01,,98283,0,NOT ASSIGNED,WM $40MM - $60MM,N,0,N,N,N,N,,All Other,1,231,Wagoner,
Walmart,Field Facility,Supercenter,64,A - SOUTHEAST,12 - TENNESSEE,146,1100 S Dupree Ave,Brownsville,TN,Tennessee,38012,35.585920929766,-89.2418865636506,U,SuperCenter,5,"Old,more than 13 months since re-grand",1973-02-01,,155017,0,NOT ASSIGNED,WM $20MM - $40MM,N,0,N,N,N,N,,All Other,1,184,Haywood,
Walmart,Field Facility,Supercenter,65,B - CENTRAL,40 - MISSOURI/ E KS,336,350 Park Ridge Rd,Sullivan,MO,Missouri,63080,38.222144358553,-91.1557114970812,U,SuperCenter,5,"Old,more than 13 months since re-grand",1973-07-03,,146398,0,NOT ASSIGNED,WM $60MM - $80MM,N,0,N,N,N,N,,All Other,1,265,Franklin,
Walmart,Field Facility,Supercenter,66,B - CENTRAL,42 - ARKANSAS/ NE OK,321,230 E Market St,Clarksville,AR,Arkansas,72830,35.4500737821535,-93.4616442469162,U,SuperCenter,5,"Old,more than 13 months since re-grand",1973-08-01,,155083,0,NOT ASSIGNED,WM $60MM - $80MM,N,0,N,N,N,N,,All Other,1,292,Johnson,
Walmart,Field Facility,Supercenter,67,B - CENTRAL,42 - ARKANSAS/ NE OK,321,600 Highway 71 N,Mena,AR,Arkansas,71953,34.5864012565481,-94.2259041072502,U,SuperCenter,5,"Old,more than 13 months since re-grand",1973-07-01,,146397,0,NOT ASSIGNED,WM $60MM - $80MM,N,0,N,N,N,N,,All Other,1,265,Polk,
Walmart,Field Facility,Supercenter,68,B - CENTRAL,42 - ARKANSAS/ NE OK,329,800 Highway 64 E,Wynne,AR,Arkansas,72396,35.2516164350175,-90.7774120985132,U,SuperCenter,5,"Old,more than 13 months since re-grand",1973-08-01,,111075,0,NOT ASSIGNED,WM $40MM - $60MM,N,0,N,N,N,N,,All Other,1,189,Cross,
Walmart,Field Facility,Supercenter,69,B - CENTRAL,40 - MISSOURI/ E KS,335,650 S Truman Blvd,Festus,MO,Missouri,63028,38.2130141954452,-90.3903782458255,U,SuperCenter,5,"Old,more than 13 months since re-grand",1973-12-01,,199026,0,NOT ASSIGNED,WM >=$80MM,N,0,N,N,N,N,,All Other,1,384,Jefferson,
Walmart,Field Facility,Supercenter,70,A - SOUTHEAST,12 - TENNESSEE,145,798 W Service Rd,West Memphis,AR,Arkansas,72301,35.16892058867,-90.1954518565829,U,SuperCenter,5,"Old,more than 13 months since re-grand",1974-07-01,,199026,0,NOT ASSIGNED,WM >=$80MM,N,0,N,N,Y,N,,All Other,1,336,Crittenden,
Walmart,Field Facility,Supercenter,71,B - CENTRAL,42 - ARKANSAS/ NE OK,328,1415 Highway 67 S,Pocahontas,AR,Arkansas,72455,36.2510042911066,-90.9629579487324,U,SuperCenter,5,"Old,more than 13 months since re-grand",1973-11-01,,128435,0,NOT ASSIGNED,WM $60MM - $80MM,N,0,N,N,N,N,,All Other,1,219,Randolph,
Walmart,Field Facility,Supercenter,72,B - CENTRAL,40 - MISSOURI/ E KS,410,2710 N Broadway St,Pittsburg,KS,Kansas,66762,37.433905697337,-94.7047606598989,U,SuperCenter,5,"Old,more than 13 months since re-grand",1974-01-01,,175499,0,NOT ASSIGNED,WM $60MM - $80MM,Y,0,N,N,N,Y,,All Other,1,309,Crawford,
Walmart,Field Facility,Supercenter,73,B - CENTRAL,42 - ARKANSAS/ NE OK,356,1002 W Taft Ave,Sapulpa,OK,Oklahoma,74066,35.9883028674084,-96.137655234605,U,SuperCenter,5,"Old,more than 13 months since re-grand",1974-10-01,,187315,0,NOT ASSIGNED,WM $60MM - $80MM,N,0,N,N,N,N,,All Other,1,271,Creek,
Walmart,Field Facility,Supercenter,74,B - CENTRAL,42 - ARKANSAS/ NE OK,329,2720 W Keiser Ave,Osceola,AR,Arkansas,72370,35.6982671320445,-90.0131704770079,U,SuperCenter,5,"Old,more than 13 months since re-grand",1973-11-01,,90210,0,NOT ASSIGNED,WM $20MM - $40MM,N,0,N,N,N,N,,All Other,1,116,Mississippi,
Walmart,Field Facility,Supercenter,75,B - CENTRAL,13 - LOUISIANA/ S MS,134,3636 Monroe Hwy,Pineville,LA,Louisiana,71360,31.3675966348669,-92.4095976358692,U,SuperCenter,5,"Old,more than 13 months since re-grand",1984-11-13,,205187,0,NOT ASSIGNED,WM >=$80MM,N,0,N,N,N,N,,All Other,1,310,Rapides,
Walmart,Field Facility,Supercenter,76,B - CENTRAL,42 - ARKANSAS/ NE OK,322,1000 W Trimble Ave,Berryville,AR,Arkansas,72616,36.377543611311,-93.5852600717124,U,SuperCenter,5,"Old,more than 13 months since re-grand",1973-11-01,,146398,0,NOT ASSIGNED,WM $60MM - $80MM,N,0,N,N,N,N,,All Other,1,282,Carroll,
Walmart,Field Facility,Supercenter,77,B - CENTRAL,8 - SOUTH TEXAS,83,3701 N Main St,Taylor,TX,Texas,76574,30.6000317546535,-97.416411644976,U,SuperCenter,5,"Old,more than 13 months since re-grand",1979-10-30,,155078,0,NOT ASSIGNED,WM $40MM - $60MM,N,0,N,N,N,N,,All Other,1,215,Williamson,
Walmart,Field Facility,Supercenter,78,B - CENTRAL,40 - MISSOURI/ E KS,357,14740 State Hwy #38,Marshfield,MO,Missouri,65706,37.32504,-92.89906,U,SuperCenter,5,"Old,more than 13 months since re-grand",1973-09-01,,158107,0,NOT ASSIGNED,WM $60MM - $80MM,N,0,N,N,N,N,,All Other,1,267,WEBSTER,
Walmart,Field Facility,Supercenter,79,B - CENTRAL,40 - MISSOURI/ E KS,334,2623 W 7th St,Joplin,MO,Missouri,64801,37.084757349415,-94.5460462870252,U,SuperCenter,5,"Old,more than 13 months since re-grand",1974-04-01,,185924,0,NOT ASSIGNED,WM $60MM - $80MM,N,0,N,N,N,N,,All Other,1,272,Jasper,
Walmart,Field Facility,Supercenter,80,B - CENTRAL,40 - MISSOURI/ E KS,359,3001 W Broadway,Columbia,MO,Missouri,65203,38.9550532746883,-92.3826445903388,U,SuperCenter,5,"Old,more than 13 months since re-grand",1973-06-01,,166746,0,NOT ASSIGNED,WM $60MM - $80MM,N,0,N,N,N,N,,All Other,1,267,Boone,
Walmart,Field Facility,Supercenter,81,B - CENTRAL,42 - ARKANSAS/ NE OK,347,RR 6 Box 1895,Stilwell,OK,Oklahoma,74960,35.79774,-94.62401,U,SuperCenter,5,"Old,more than 13 months since re-grand",1973-06-01,,100064,0,NOT ASSIGNED,WM $20MM - $40MM,N,0,N,N,N,N,,All Other,1,148,Adair,
Walmart,Field Facility,Supercenter,82,B - CENTRAL,40 - MISSOURI/ E KS,335,1750 S Perryville Blvd,Perryville,MO,Missouri,63775,37.7051183175094,-89.894268270688,U,SuperCenter,5,"Old,more than 13 months since re-grand",1974-04-01,,109630,0,NOT ASSIGNED,WM $40MM - $60MM,N,0,N,N,N,N,,All Other,1,175,Perry,
Walmart,Field Facility,Supercenter,83,B - CENTRAL,42 - ARKANSAS/ NE OK,327,60 Highway 79 N,Magnolia,AR,Arkansas,71753,33.272749070234,-93.2148077105269,U,SuperCenter,5,"Old,more than 13 months since re-grand",1974-08-01,,155078,0,NOT ASSIGNED,WM $60MM - $80MM,N,0,N,N,N,N,,All Other,1,259,Columbia,
Walmart,Field Facility,Supercenter,84,X - US RETAIL SD X,99 - NORTH AND CENTRAL CA,999,3680 W Shaw Ave,Fresno,CA,California,93711,36.8084671325916,-119.859909473684,T,Test or Control,7,Closed,1992-11-02,2018-10-24,126723,0,NOT ASSIGNED,Wal-Mart < 40M,N,0,N,N,N,N,,All Other,1,0,Fresno,
Walmart,Field Facility,Supercenter,85,B - CENTRAL,42 - ARKANSAS/ NE OK,324,17309 Interstate 30 S,Benton,AR,Arkansas,72015,34.5776550551109,-92.582957829866,U,SuperCenter,5,"Old,more than 13 months since re-grand",1974-04-01,,202307,0,NOT ASSIGNED,WM >=$80MM,N,0,N,Y,N,N,,All Other,1,370,Saline,
Walmart,Field Facility,Supercenter,86,B - CENTRAL,40 - MISSOURI/ E KS,357,2825 N Kansas Expy,Springfield,MO,Missouri,65803,37.24892,-93.3109922742225,U,SuperCenter,5,"Old,more than 13 months since re-grand",1973-12-01,,181193,0,NOT ASSIGNED,WM >=$80MM,N,0,N,N,N,N,,All Other,1,389,Greene,
Walmart,Field Facility,Supercenter,87,B - CENTRAL,13 - LOUISIANA/ S MS,127,1379 Homer Rd,Minden,LA,Louisiana,71055,32.6263076551187,-93.2504828178585,U,SuperCenter,5,"Old,more than 13 months since re-grand",1974-07-01,,186291,0,NOT ASSIGNED,WM >=$80MM,N,0,N,N,N,Y,,All Other,1,312,Webster,
Walmart,Field Facility,Supercenter,88,B - CENTRAL,40 - MISSOURI/ E KS,357,2100 N Main Ave,Mountain Grove,MO,Missouri,65711,37.149215,-92.2625679531713,U,SuperCenter,5,"Old,more than 13 months since re-grand",1974-02-01,,132772,0,NOT ASSIGNED,WM $40MM - $60MM,N,0,N,N,N,N,,All Other,1,203,Wright,
Walmart,Field Facility,Supercenter,89,B - CENTRAL,40 - MISSOURI/ E KS,336,94 Cecil St,Camdenton,MO,Missouri,65020,38.024327720445,-92.7250007347832,U,SuperCenter,5,"Old,more than 13 months since re-grand",1974-02-01,,183917,0,NOT ASSIGNED,WM >=$80MM,N,0,N,N,N,N,,All Other,1,266,Camden,
Walmart,Field Facility,Supercenter,90,B - CENTRAL,42 - ARKANSAS/ NE OK,347,2115 S Main St,Grove,OK,Oklahoma,74344,36.5762922477806,-94.7689291670496,U,SuperCenter,5,"Old,more than 13 months since re-grand",1974-04-01,,146397,0,NOT ASSIGNED,WM $60MM - $80MM,N,0,N,N,N,N,,All Other,1,264,Delaware,
Walmart,Field Facility,Supercenter,91,B - CENTRAL,42 - ARKANSAS/ NE OK,329,205 Deadrick Rd,Forrest City,AR,Arkansas,72335,35.0297928948266,-90.7927933487099,U,SuperCenter,5,"Old,more than 13 months since re-grand",1974-09-01,,146397,0,NOT ASSIGNED,WM $40MM - $60MM,N,0,N,N,N,N,,All Other,1,252,Saint Francis,
Walmart,Field Facility,Supercenter,92,B - CENTRAL,40 - MISSOURI/ E KS,334,3020 S Elliott Ave,Aurora,MO,Missouri,65605,36.9462940392764,-93.7184341331772,U,SuperCenter,5,"Old,more than 13 months since re-grand",1974-04-01,,152339,0,NOT ASSIGNED,WM $40MM - $60MM,N,0,N,N,N,N,,All Other,1,193,Lawrence,
Walmart,Field Facility,Supercenter,93,A - SOUTHEAST,12 - TENNESSEE,145,201 Lanny Bridges Ave,Covington,TN,Tennessee,38019,35.546546943051,-89.662901141662,U,SuperCenter,5,"Old,more than 13 months since re-grand",1974-10-01,,203819,0,NOT ASSIGNED,WM $60MM - $80MM,N,0,N,N,N,N,,All Other,1,271,Tipton,
Walmart,Field Facility,Supercenter,94,A - SOUTHEAST,12 - TENNESSEE,145,8445 US Highway 51 N,Millington,TN,Tennessee,38053,35.356342279555,-89.8953645147737,U,SuperCenter,5,"Old,more than 13 months since re-grand",1974-07-01,,200084,0,NOT ASSIGNED,WM >=$80MM,N,0,N,N,N,N,,All Other,1,309,Shelby,
Walmart,Field Facility,Supercenter,95,B - CENTRAL,40 - MISSOURI/ E KS,335,407 N State St,Desloge,MO,Missouri,63601,37.88269,-90.5112637461897,U,SuperCenter,5,"Old,more than 13 months since re-grand",1974-10-01,,187935,0,NOT ASSIGNED,WM >=$80MM,N,0,N,N,N,N,,All Other,1,335,Saint Francois,
Walmart,Field Facility,Supercenter,96,B - CENTRAL,40 - MISSOURI/ E KS,361,1700 N State Route 291,Harrisonville,MO,Missouri,64701,38.6661236577255,-94.3670031404289,U,SuperCenter,5,"Old,more than 13 months since re-grand",1974-10-01,,203737,0,NOT ASSIGNED,WM >=$80MM,N,0,N,N,N,N,,All Other,1,292,Cass,
Walmart,Field Facility,Supercenter,97,A - SOUTHEAST,12 - TENNESSEE,146,628 Highway 51 N,Ripley,TN,Tennessee,38063,35.7623470426706,-89.5450035378668,U,SuperCenter,5,"Old,more than 13 months since re-grand",1974-11-01,,118074,0,NOT ASSIGNED,WM $40MM - $60MM,N,0,N,N,N,N,,All Other,1,141,Lauderdale,
Walmart,Field Facility,Supercenter,98,B - CENTRAL,13 - LOUISIANA/ S MS,135,6091 Mer Rouge Rd,Bastrop,LA,Louisiana,71220,32.7735579454872,-91.8699160079168,U,SuperCenter,5,"Old,more than 13 months since re-grand",1975-02-01,,184398,0,NOT ASSIGNED,WM $40MM - $60MM,N,0,N,N,N,N,,All Other,1,232,Morehouse,
Walmart,Field Facility,Supercenter,99,B - CENTRAL,40 - MISSOURI/ E KS,336,1445 E Central Ct,Union,MO,Missouri,63084,38.4334708925882,-90.9721547379551,U,SuperCenter,5,"Old,more than 13 months since re-grand",1976-02-01,,109530,0,NOT ASSIGNED,WM $40MM - $60MM,N,0,N,N,N,N,,All Other,1,215,Franklin,
Walmart,Field Facility,Supercenter,100,B - CENTRAL,42 - ARKANSAS/ NE OK,323,406 S Walton Blvd,Bentonville,AR,Arkansas,72712,36.3685301225524,-94.2218743342399,U,SuperCenter,5,"Old,more than 13 months since re-grand",1974-10-01,,179425,0,NOT ASSIGNED,WM >=$80MM,N,0,N,N,N,N,,All Other,1,484,Benton,
Walmart,Field Facility,Supercenter,101,B - CENTRAL,40 - MISSOURI/ E KS,336,500 S Bishop Ave,Rolla,MO,Missouri,65401,37.9385750755049,-91.7774937590824,U,SuperCenter,5,"Old,more than 13 months since re-grand",1976-02-01,,167239,0,NOT ASSIGNED,WM >=$80MM,N,0,N,N,N,N,,All Other,1,331,Phelps,
Walmart,Field Facility,Supercenter,102,B - CENTRAL,42 - ARKANSAS/ NE OK,327,406 E 22nd St,Stuttgart,AR,Arkansas,72160,34.4791628674084,-91.549035,U,SuperCenter,5,"Old,more than 13 months since re-grand",1974-09-01,,109530,0,NOT ASSIGNED,WM $40MM - $60MM,N,0,N,N,N,N,,All Other,1,194,Arkansas,
Walmart,Field Facility,Supercenter,103,B - CENTRAL,42 - ARKANSAS/ NE OK,351,196 Shawnee Mall Dr,Shawnee,OK,Oklahoma,74804,35.3845540313935,-96.9167498376016,U,SuperCenter,5,"Old,more than 13 months since re-grand",1975-08-01,,206457,0,NOT ASSIGNED,WM >=$80MM,N,0,N,N,N,N,,All Other,1,366,Pottawatomie,
Walmart,Field Facility,Supercenter,104,A - SOUTHEAST,12 - TENNESSEE,146,15427 S First St,Milan,TN,Tennessee,38358,35.8768672704828,-88.7450234767076,U,SuperCenter,5,"Old,more than 13 months since re-grand",1974-07-01,,187414,0,NOT ASSIGNED,WM $60MM - $80MM,N,0,N,N,N,N,,All Other,1,222,Gibson,
Walmart,Field Facility,Supercenter,105,A - SOUTHEAST,14 - NORTH MISS/ ALABAMA,137,2301 S Harper Rd,Corinth,MS,Mississippi,38834,34.9113176405695,-88.5034556802422,U,SuperCenter,5,"Old,more than 13 months since re-grand",1974-08-01,,201998,0,NOT ASSIGNED,WM >=$80MM,N,0,N,N,N,N,,All Other,1,291,Alcorn,
Walmart,Field Facility,Supercenter,106,A - SOUTHEAST,12 - TENNESSEE,146,1405 Middle Rd,Fulton,KY,Kentucky,42041,36.5158151765907,-88.9001912838853,U,SuperCenter,5,"Old,more than 13 months since re-grand",1974-08-01,,107356,0,NOT ASSIGNED,WM $20MM - $40MM,N,0,N,N,N,N,,All Other,1,132,Hickman,
Walmart,Field Facility,Supercenter,107,A - SOUTHEAST,12 - TENNESSEE,146,134 Courtright Rd,Martin,TN,Tennessee,38237,36.3540748087107,-88.8823435015689,U,SuperCenter,5,"Old,more than 13 months since re-grand",1974-10-01,,158075,0,NOT ASSIGNED,WM $60MM - $80MM,N,0,N,N,N,N,,All Other,1,258,Weakley,
Walmart,Field Facility,Supercenter,108,B - CENTRAL,44 - OK/ NW TEXAS/ W TEXAS,344,1608 S Division St,Guthrie,OK,Oklahoma,73044,35.8614948173411,-97.4252096106362,U,SuperCenter,5,"Old,more than 13 months since re-grand",1975-02-01,,160660,0,NOT ASSIGNED,WM $40MM - $60MM,N,0,N,N,N,Y,,All Other,1,244,Logan,
Walmart,Field Facility,Supercenter,109,B - CENTRAL,40 - MISSOURI/ E KS,360,2000 N Walnut St,Cameron,MO,Missouri,64429,39.7569548919552,-94.234154232247,U,SuperCenter,5,"Old,more than 13 months since re-grand",1975-02-01,,115021,0,NOT ASSIGNED,WM $60MM - $80MM,N,0,N,N,N,N,,All Other,1,197,Dekalb,
Walmart,Field Facility,Supercenter,110,A - SOUTHEAST,9 - CENTRAL FLORIDA,89,16313 New Independence Pkwy,Winter Garden,FL,Florida,34787,28.4746571325916,-81.62875,U,SuperCenter,2,"New,open 13 months or more",2016-11-16,,190380,0,NOT ASSIGNED,WM >=$80MM,N,0,N,N,N,N,,All Other,1,298,Orange,
Walmart,Field Facility,Supercenter,111,B - CENTRAL,40 - MISSOURI/ E KS,410,2700 S Santa Fe Ave,Chanute,KS,Kansas,66720,37.6534686075035,-95.4524193514772,U,SuperCenter,5,"Old,more than 13 months since re-grand",1975-11-01,,154756,0,NOT ASSIGNED,WM $40MM - $60MM,N,0,N,N,N,N,,All Other,1,222,Neosho,
Walmart,Field Facility,Supercenter,112,A - SOUTHEAST,14 - NORTH MISS/ ALABAMA,138,1010 Highway 12 W,Starkville,MS,Mississippi,39759,33.4427208234277,-88.850781253229,U,SuperCenter,5,"Old,more than 13 months since re-grand",1975-04-01,,205863,0,NOT ASSIGNED,WM >=$80MM,N,0,N,N,N,N,,All Other,1,313,Oktibbeha,
Walmart,Field Facility,Supercenter,113,B - CENTRAL,44 - OK/ NW TEXAS/ W TEXAS,349,2001 S 1st St,Chickasha,OK,Oklahoma,73018,35.0313244125437,-97.9333391604255,U,SuperCenter,2,"New,open 13 months or more",1975-07-01,,188242,0,NOT ASSIGNED,WM >=$80MM,N,0,N,N,N,N,,All Other,1,291,Grady,
Walmart,Field Facility,Supercenter,114,A - SOUTHEAST,14 - NORTH MISS/ ALABAMA,137,300 Walmart Cir,Booneville,MS,Mississippi,38829,34.6752528674084,-88.563224,U,SuperCenter,5,"Old,more than 13 months since re-grand",1975-04-01,,149595,0,NOT ASSIGNED,WM $40MM - $60MM,N,0,N,N,N,N,,All Other,1,173,Prentiss,
Walmart,Field Facility,Supercenter,115,A - SOUTHEAST,14 - NORTH MISS/ ALABAMA,138,5509 Highway 45 Alt S,West Point,MS,Mississippi,39773,33.5863125,-88.6592246144037,U,SuperCenter,5,"Old,more than 13 months since re-grand",1976-09-01,,156438,0,NOT ASSIGNED,WM $40MM - $60MM,N,0,N,N,N,N,,All Other,1,189,Clay,
Walmart,Field Facility,Supercenter,116,B - CENTRAL,13 - LOUISIANA/ S MS,127,929 S Pine St,Vivian,LA,Louisiana,71082,32.8584140644438,-93.9852837115864,R,Regular Wal-Mart,5,"Old,more than 13 months since re-grand",1975-08-01,,49950,0,NOT ASSIGNED,WM <$20MM,N,0,N,N,N,N,,All Other,1,82,Caddo,
Walmart,Field Facility,Supercenter,117,B - CENTRAL,44 - OK/ NW TEXAS/ W TEXAS,47,501 S Park Dr,Broken Bow,OK,Oklahoma,74728,34.02265,-94.7393745440758,R,Regular Wal-Mart,2,"New,open 13 months or more",1975-06-01,,52323,0,NOT ASSIGNED,WM $20MM - $40MM,N,0,N,N,N,N,,All Other,1,98,McCurtain,
Walmart,Field Facility,Supercenter,118,A - SOUTHEAST,14 - NORTH MISS/ ALABAMA,4,1515 Highway 278 E,Amory,MS,Mississippi,38821,33.967968748105,-88.4592692686025,U,SuperCenter,5,"Old,more than 13 months since re-grand",1976-04-01,,146398,0,NOT ASSIGNED,WM $60MM - $80MM,Y,0,N,N,N,N,,All Other,1,223,Monroe,
Walmart,Field Facility,Supercenter,119,B - CENTRAL,42 - ARKANSAS/ NE OK,328,3150 Harrison St,Batesville,AR,Arkansas,72501,35.76438454819,-91.6150355254656,U,SuperCenter,5,"Old,more than 13 months since re-grand",1976-03-01,,185101,0,NOT ASSIGNED,WM >=$80MM,N,0,N,N,N,Y,,All Other,1,316,Independence,
Walmart,Field Facility,Supercenter,120,A - SOUTHEAST,12 - TENNESSEE,146,2716 N Central Ave,Humboldt,TN,Tennessee,38343,35.8420669619612,-88.9147043489583,U,SuperCenter,5,"Old,more than 13 months since re-grand",1976-03-01,,187414,0,NOT ASSIGNED,WM $60MM - $80MM,N,0,N,N,N,N,,All Other,1,232,Gibson,
Walmart,Field Facility,Supercenter,121,B - CENTRAL,42 - ARKANSAS/ NE OK,351,1800 S Wood Dr,Okmulgee,OK,Oklahoma,74447,35.6046621818182,-95.9620086636981,U,SuperCenter,5,"Old,more than 13 months since re-grand",1975-09-01,,152222,0,NOT ASSIGNED,WM $60MM - $80MM,N,0,N,N,N,N,,All Other,1,255,Okmulgee,
Walmart,Field Facility,Supercenter,122,B - CENTRAL,40 - MISSOURI/ E KS,335,3051 E Jackson Blvd,Jackson,MO,Missouri,63755,37.3641235231339,-89.6334808243647,U,SuperCenter,5,"Old,more than 13 months since re-grand",1975-11-01,,112120,0,NOT ASSIGNED,WM $60MM - $80MM,N,0,N,N,N,N,,All Other,1,204,Cape Girardeau,
Walmart,Field Facility,Supercenter,123,B - CENTRAL,42 - ARKANSAS/ NE OK,351,1500 E Wrangler Blvd,Seminole,OK,Oklahoma,74868,35.246643269274,-96.6546071427191,U,SuperCenter,5,"Old,more than 13 months since re-grand",1975-06-01,,111075,0,NOT ASSIGNED,WM $40MM - $60MM,N,0,N,N,N,N,,All Other,1,210,Seminole,
Walmart,Field Facility,Supercenter,124,B - CENTRAL,42 - ARKANSAS/ NE OK,324,8801 Baseline Rd,Little Rock,AR,Arkansas,72209,34.6699584575759,-92.376695968203,U,SuperCenter,5,"Old,more than 13 months since re-grand",1975-03-01,,201372,0,NOT ASSIGNED,Supercenter Complex,N,0,Y,Y,N,N,,All Other,1,318,Pulaski,
Walmart,Field Facility,Supercenter,125,B - CENTRAL,42 - ARKANSAS/ NE OK,321,2425 S Zero St,Fort Smith,AR,Arkansas,72901,35.3278870797161,-94.4073753327931,U,SuperCenter,5,"Old,more than 13 months since re-grand",1975-04-01,,224132,0,NOT ASSIGNED,WM >=$80MM,N,0,N,N,N,Y,,All Other,1,385,Sebastian,
Walmart,Field Facility,Supercenter,126,B - CENTRAL,42 - ARKANSAS/ NE OK,324,2700 S Shackleford Rd,Little Rock,AR,Arkansas,72205,34.7294033948185,-92.3950229607625,U,SuperCenter,5,"Old,more than 13 months since re-grand",1976-03-01,,177557,0,NOT ASSIGNED,Supercenter Complex,N,0,Y,Y,N,N,,All Other,1,317,Pulaski,
Walmart,Field Facility,Supercenter,127,B - CENTRAL,42 - ARKANSAS/ NE OK,324,1910 Martin Luther King Blvd,Malvern,AR,Arkansas,72104,34.3918044451335,-92.8291160457893,U,SuperCenter,5,"Old,more than 13 months since re-grand",1976-02-01,,158128,0,NOT ASSIGNED,WM $60MM - $80MM,N,0,N,Y,N,N,,All Other,1,238,Hot Spring,
Walmart,Field Facility,Supercenter,128,B - CENTRAL,42 - ARKANSAS/ NE OK,329,1911 W Parker Rd,Jonesboro,AR,Arkansas,72404,35.8166212787902,-90.7321364825219,U,SuperCenter,5,"Old,more than 13 months since re-grand",1978-08-01,,149704,0,NOT ASSIGNED,WM $60MM - $80MM,N,0,N,N,N,N,,All Other,1,272,Craighead,
Walmart,Field Facility,Supercenter,129,B - CENTRAL,44 - OK/ NW TEXAS/ W TEXAS,350,1715 N Commerce St,Ardmore,OK,Oklahoma,73401,34.1937285412252,-97.1433057814703,U,SuperCenter,5,"Old,more than 13 months since re-grand",1975-07-01,,187572,0,NOT ASSIGNED,WM >=$80MM,N,0,N,N,N,N,,All Other,1,389,Carter,
Walmart,Field Facility,Supercenter,130,B - CENTRAL,42 - ARKANSAS/ NE OK,351,1000 W Shawnee St,Muskogee,OK,Oklahoma,74401,35.7705650793694,-95.371799765707,U,SuperCenter,5,"Old,more than 13 months since re-grand",1975-07-01,,203091,0,NOT ASSIGNED,WM >=$80MM,N,0,N,N,N,N,,All Other,1,377,Muskogee,
Walmart,Field Facility,Supercenter,131,B - CENTRAL,44 - OK/ NW TEXAS/ W TEXAS,47,2311 S Jefferson Ave,Mount Pleasant,TX,Texas,75455,33.1357770588235,-94.9680062356487,U,SuperCenter,5,"Old,more than 13 months since re-grand",1975-11-01,,172753,0,NOT ASSIGNED,WM >=$80MM,N,0,N,N,N,N,,All Other,1,321,Titus,
Walmart,Field Facility,Supercenter,132,B - CENTRAL,44 - OK/ NW TEXAS/ W TEXAS,344,200 Starlite Dr,Kingfisher,OK,Oklahoma,73750,35.8277571325916,-97.93618,U,SuperCenter,5,"Old,more than 13 months since re-grand",1976-02-01,,99581,0,NOT ASSIGNED,WM $20MM - $40MM,N,0,N,N,N,N,,All Other,1,111,Kingfisher,
Walmart,Field Facility,Supercenter,133,B - CENTRAL,42 - ARKANSAS/ NE OK,325,297 Hwy 32 By-Pass E,Ashdown,AR,Arkansas,71822,33.6812780805816,-94.0828896440172,U,SuperCenter,5,"Old,more than 13 months since re-grand",1976-05-01,,99581,0,NOT ASSIGNED,WM $20MM - $40MM,N,0,N,N,N,N,,All Other,1,129,LITTLE RIVER,
Walmart,Field Facility,Supercenter,134,B - CENTRAL,44 - OK/ NW TEXAS/ W TEXAS,344,210 Regional Dr,Elk City,OK,Oklahoma,73644,35.4114459808257,-99.377795346165,U,SuperCenter,5,"Old,more than 13 months since re-grand",1976-08-01,,177557,0,NOT ASSIGNED,WM >=$80MM,N,0,N,N,N,N,,All Other,1,280,Beckham,
Walmart,Field Facility,Supercenter,135,B - CENTRAL,40 - MISSOURI/ E KS,360,1000 Graves St,Chillicothe,MO,Missouri,64601,39.7774490274529,-93.5542284291813,U,SuperCenter,5,"Old,more than 13 months since re-grand",1976-04-01,,159926,0,NOT ASSIGNED,WM $60MM - $80MM,N,0,N,N,N,N,,All Other,1,185,Livingston,
Walmart,Field Facility,Supercenter,136,B - CENTRAL,44 - OK/ NW TEXAS/ W TEXAS,344,1219 W Doolin Ave,Blackwell,OK,Oklahoma,74631,36.8113028674084,-97.2993,R,Regular Wal-Mart,2,"New,open 13 months or more",1976-04-01,,41400,0,NOT ASSIGNED,WM <$20MM,N,0,N,N,N,N,,All Other,1,68,Kay,
Walmart,Field Facility,Supercenter,137,B - CENTRAL,44 - OK/ NW TEXAS/ W TEXAS,344,111 N Perkins Rd,Stillwater,OK,Oklahoma,74075,36.124014379139,-97.0512602274178,U,SuperCenter,5,"Old,more than 13 months since re-grand",1976-10-01,,190096,0,NOT ASSIGNED,WM >=$80MM,N,0,N,N,N,N,,All Other,1,368,Payne,
Walmart,Field Facility,Supercenter,138,B - CENTRAL,40 - MISSOURI/ E KS,357,1923 E Kearney St,Springfield,MO,Missouri,65803,37.2401970244618,-93.2586631608559,U,SuperCenter,5,"Old,more than 13 months since re-grand",1977-11-01,,184109,0,NOT ASSIGNED,WM >=$80MM,N,0,N,N,N,N,,All Other,1,339,Greene,
Walmart,Field Facility,Supercenter,139,B - CENTRAL,44 - OK/ NW TEXAS/ W TEXAS,353,2015 S Green Ave,Purcell,OK,Oklahoma,73080,34.9870782958444,-97.3681670749955,U,SuperCenter,5,"Old,more than 13 months since re-grand",1976-07-01,,155017,0,NOT ASSIGNED,WM $40MM - $60MM,N,0,N,N,N,N,,All Other,1,206,McClain,
Walmart,Field Facility,Supercenter,140,B - CENTRAL,6 - HOUSTON,503,2500 Daniel McCall Dr,Lufkin,TX,Texas,75904,31.2977651437614,-94.7298595051925,U,SuperCenter,5,"Old,more than 13 months since re-grand",1976-09-01,,221803,0,NOT ASSIGNED,WM >=$80MM,N,0,N,N,N,N,,All Other,1,419,Angelina,
Walmart,Field Facility,Supercenter,141,B - CENTRAL,42 - ARKANSAS/ NE OK,321,8301 Rogers Ave,Fort Smith,AR,Arkansas,72903,35.3483426551187,-94.3405248114032,U,SuperCenter,5,"Old,more than 13 months since re-grand",1976-05-01,,200084,0,NOT ASSIGNED,WM >=$80MM,N,0,N,N,N,N,,All Other,1,352,Sebastian,
Walmart,Support,REGULAR WAL-MART,142,X - US RETAIL SD X,99 - RETAIL REGION 99,999,2204 US Highway 82 E,Clarksville,TX,Texas,75426,33.6127898589761,-95.0334049763232,R,Regular Wal-Mart,7,Closed,1976-05-01,1984-07-18,44281,0,NOT ASSIGNED,Wal-Mart < 40M,,0,All Other,All Other,All Other,All Other,,All Other,1,0,RED RIVER,
Walmart,Field Facility,Supercenter,143,E - NORTHEAST,"41 - KENTUCKY, WEST VIRGINIA",253,310 W 5th St,Benton,KY,Kentucky,42025,36.8672423005631,-88.3601948991029,U,SuperCenter,5,"Old,more than 13 months since re-grand",1976-06-01,,154450,0,NOT ASSIGNED,WM $60MM - $80MM,N,0,N,N,N,N,,All Other,1,268,Marshall,
Walmart,Field Facility,Supercenter,144,B - CENTRAL,42 - ARKANSAS/ NE OK,322,2875 W Mrtn Luther K,Fayetteville,AR,Arkansas,72704,36.10259,-94.29736,U,SuperCenter,5,"Old,more than 13 months since re-grand",1976-09-01,,217969,0,NOT ASSIGNED,WM >=$80MM,N,0,N,N,N,N,,All Other,1,419,WASHINGTON,
Walmart,Field Facility,Supercenter,145,B - CENTRAL,43 - S IL/ W INDIANA,339,3 Town Center Dr,Bowling Green,MO,Missouri,63334,39.3316933638917,-91.1827179211819,U,SuperCenter,5,"Old,more than 13 months since re-grand",1976-10-01,,100167,0,NOT ASSIGNED,WM $40MM - $60MM,N,0,N,N,N,N,,All Other,1,166,Pike,
Walmart,Field Facility,Supercenter,146,B - CENTRAL,5 - DALLAS/ N TEXAS,46,1102 US Highway 271 N,Gilmer,TX,Texas,75644,32.7467033656972,-94.9396608979893,U,SuperCenter,5,"Old,more than 13 months since re-grand",1976-03-01,,110812,0,NOT ASSIGNED,WM $60MM - $80MM,N,0,N,N,N,N,,All Other,1,193,Upshur,
Walmart,Field Facility,Supercenter,147,B - CENTRAL,44 - OK/ NW TEXAS/ W TEXAS,350,401 N US Highway 75,Denison,TX,Texas,75020,33.75933,-96.5860349459149,U,SuperCenter,5,"Old,more than 13 months since re-grand",1976-07-01,,171059,0,NOT ASSIGNED,WM >=$80MM,N,0,N,N,N,N,,All Other,1,322,Grayson,
Walmart,Field Facility,Supercenter,148,B - CENTRAL,44 - OK/ NW TEXAS/ W TEXAS,47,3855 Lamar Ave,Paris,TX,Texas,75462,33.6619971325916,-95.5054,U,SuperCenter,5,"Old,more than 13 months since re-grand",1976-06-01,,206532,0,NOT ASSIGNED,WM >=$80MM,N,0,N,N,Y,N,,All Other,1,375,Lamar,
Walmart,Field Facility,Supercenter,149,B - CENTRAL,13 - LOUISIANA/ S MS,135,184 Old Winnfield Rd,Jonesboro,LA,Louisiana,71251,32.2274278824601,-92.7082704080419,U,SuperCenter,5,"Old,more than 13 months since re-grand",1977-03-01,,110610,0,NOT ASSIGNED,WM $40MM - $60MM,N,0,N,N,N,N,,All Other,1,140,Jackson,
Walmart,Field Facility,Supercenter,150,B - CENTRAL,44 - OK/ NW TEXAS/ W TEXAS,344,3215 Williams Ave,Woodward,OK,Oklahoma,73801,36.4141405152829,-99.3814672826981,U,SuperCenter,5,"Old,more than 13 months since re-grand",1976-10-01,,179958,0,NOT ASSIGNED,WM >=$80MM,N,0,N,N,N,N,,All Other,1,250,Woodward,
Walmart,Field Facility,Supercenter,151,B - CENTRAL,44 - OK/ NW TEXAS/ W TEXAS,47,432 S George Nigh Expy,McAlester,OK,Oklahoma,74501,34.9201126630811,-95.7441664710467,U,SuperCenter,5,"Old,more than 13 months since re-grand",1977-03-01,,205679,0,NOT ASSIGNED,WM >=$80MM,N,0,N,N,N,N,,All Other,1,340,Pittsburg,
Walmart,Field Facility,Supercenter,152,B - CENTRAL,40 - MISSOURI/ E KS,335,12862 State Route 21,De Soto,MO,Missouri,63020,38.1500219631816,-90.5773357376755,U,SuperCenter,5,"Old,more than 13 months since re-grand",1976-12-01,,155078,0,NOT ASSIGNED,WM $60MM - $80MM,N,0,N,N,N,N,,All Other,1,289,Jefferson,
Walmart,Field Facility,Supercenter,153,A - SOUTHEAST,14 - NORTH MISS/ ALABAMA,137,202 Park Plaza Dr,New Albany,MS,Mississippi,38652,34.4949274272495,-89.0315539145098,U,SuperCenter,5,"Old,more than 13 months since re-grand",1976-10-01,,130859,0,NOT ASSIGNED,WM $60MM - $80MM,N,0,N,N,N,N,,All Other,1,224,Union,
Walmart,Field Facility,Supercenter,154,A - SOUTHEAST,26 - WESTERN NC,311,16032 15 Mile Blvd,Abingdon,VA,Virginia,24211,36.65408,-81.9546,U,SuperCenter,2,"New,open 13 months or more",2016-11-16,,186993,0,NOT ASSIGNED,WM $60MM - $80MM,N,0,N,N,N,N,,All Other,1,273,Washington,
Walmart,Field Facility,Supercenter,155,A - SOUTHEAST,14 - NORTH MISS/ ALABAMA,136,5219 Highway 51 N,Senatobia,MS,Mississippi,38668,34.6298809849567,-89.9687866576402,U,SuperCenter,5,"Old,more than 13 months since re-grand",1977-08-01,,146398,0,NOT ASSIGNED,WM $60MM - $80MM,N,0,N,N,N,N,,All Other,1,239,Tate,
Walmart,Support,REGULAR WAL-MART,156,X - US RETAIL SD X,99 - RETAIL REGION 99,999,State Hwy 84 West,Caruthersville,MO,Missouri,63830,36.14324,-89.70085,R,Regular Wal-Mart,7,Closed,1977-01-01,2017-03-31,48847,0,NOT ASSIGNED,Low Volume Hometown,,0,All Other,All Other,All Other,All Other,,All Other,1,0,PEMISCOT,
Walmart,Field Facility,Supercenter,157,B - CENTRAL,42 - ARKANSAS/ NE OK,328,3509 E Race Ave,Searcy,AR,Arkansas,72143,35.2501928674084,-91.68657,U,SuperCenter,5,"Old,more than 13 months since re-grand",1977-01-01,,186789,0,NOT ASSIGNED,WM >=$80MM,N,0,N,N,N,N,,All Other,1,373,White,
Walmart,Field Facility,Supercenter,158,B - CENTRAL,44 - OK/ NW TEXAS/ W TEXAS,350,2021 N State Highway 121,Bonham,TX,Texas,75418,33.596423515065,-96.1924345796055,U,SuperCenter,5,"Old,more than 13 months since re-grand",1977-05-01,,109450,0,NOT ASSIGNED,WM $40MM - $60MM,N,0,N,N,N,N,,All Other,1,200,Fannin,
Walmart,Field Facility,Supercenter,159,B - CENTRAL,40 - MISSOURI/ E KS,359,415 Conley Rd,Columbia,MO,Missouri,65201,38.954830877351,-92.2938895302998,U,SuperCenter,5,"Old,more than 13 months since re-grand",1977-03-01,,198419,0,NOT ASSIGNED,WM >=$80MM,N,0,N,N,N,N,,All Other,1,367,Boone,
Walmart,Field Facility,Supercenter,160,B - CENTRAL,42 - ARKANSAS/ NE OK,328,219 Highway 412,Ash Flat,AR,Arkansas,72513,36.2392057464457,-91.6035506155329,U,SuperCenter,5,"Old,more than 13 months since re-grand",1977-01-01,,128435,0,NOT ASSIGNED,WM $60MM - $80MM,N,0,N,N,N,N,,All Other,1,207,SHARP,
Walmart,Field Facility,Supercenter,161,A - SOUTHEAST,12 - TENNESSEE,147,180 Veterans Dr N,Huntingdon,TN,Tennessee,38344,35.9966467044911,-88.4387554138169,U,SuperCenter,5,"Old,more than 13 months since re-grand",1977-05-01,,107356,0,NOT ASSIGNED,WM $40MM - $60MM,N,0,N,N,N,N,,All Other,1,142,Carroll,
Walmart,Field Facility,Supercenter,162,B - CENTRAL,44 - OK/ NW TEXAS/ W TEXAS,349,1201 W Petree Rd,Anadarko,OK,Oklahoma,73005,35.0579521189919,-98.2622773592972,U,SuperCenter,5,"Old,more than 13 months since re-grand",1977-06-01,,109450,0,NOT ASSIGNED,WM $20MM - $40MM,N,0,N,N,N,N,,All Other,1,148,Caddo,
Walmart,Field Facility,Supercenter,163,B - CENTRAL,6 - HOUSTON,503,4810 North St,Nacogdoches,TX,Texas,75965,31.6498982228122,-94.6553424053662,U,SuperCenter,5,"Old,more than 13 months since re-grand",1977-02-01,,198308,0,NOT ASSIGNED,WM >=$80MM,N,0,N,N,N,N,,All Other,1,393,Nacogdoches,
Walmart,Field Facility,Supercenter,164,A - SOUTHEAST,14 - NORTH MISS/ ALABAMA,4,100 McCord Rd,Pontotoc,MS,Mississippi,38863,34.2859020409152,-89.0242336314335,U,SuperCenter,5,"Old,more than 13 months since re-grand",1977-02-01,,158075,0,NOT ASSIGNED,WM $60MM - $80MM,N,0,N,N,N,Y,,All Other,1,280,Pontotoc,
Walmart,Field Facility,Supercenter,165,B - CENTRAL,5 - DALLAS/ N TEXAS,46,2121 US Highway 79 S,Henderson,TX,Texas,75654,32.1329638985358,-94.8028838206426,U,SuperCenter,5,"Old,more than 13 months since re-grand",1977-05-01,,152474,0,NOT ASSIGNED,WM $60MM - $80MM,N,0,N,N,N,N,,All Other,1,240,Rusk,
Walmart,Field Facility,Supercenter,166,B - CENTRAL,40 - MISSOURI/ E KS,357,1433 S Sam Houston Blvd,Houston,MO,Missouri,65483,37.3127802246919,-91.9601176363191,U,SuperCenter,5,"Old,more than 13 months since re-grand",1977-03-01,,107356,0,NOT ASSIGNED,WM $40MM - $60MM,N,0,N,N,N,N,,All Other,1,188,Texas,
Walmart,Field Facility,Supercenter,167,B - CENTRAL,42 - ARKANSAS/ NE OK,327,910 Unity Rd,Crossett,AR,Arkansas,71635,33.1379851100918,-91.9413340769141,U,SuperCenter,5,"Old,more than 13 months since re-grand",1977-04-01,,155070,0,NOT ASSIGNED,WM $40MM - $60MM,N,0,N,N,N,N,,All Other,1,165,Ashley,
Walmart,Field Facility,Supercenter,168,B - CENTRAL,42 - ARKANSAS/ NE OK,345,12101 E 96th St N,Owasso,OK,Oklahoma,74055,36.2931602667552,-95.8392779708295,U,SuperCenter,5,"Old,more than 13 months since re-grand",1978-02-07,,206651,0,NOT ASSIGNED,WM >=$80MM,N,0,N,N,N,N,,All Other,1,380,Tulsa,
Walmart,Field Facility,Supercenter,169,B - CENTRAL,42 - ARKANSAS/ NE OK,326,322 Brownsville Loop,Lonoke,AR,Arkansas,72086,34.8059685398457,-91.8940008011693,U,SuperCenter,5,"Old,more than 13 months since re-grand",1977-09-01,,100167,0,NOT ASSIGNED,WM $20MM - $40MM,N,0,N,N,N,N,,All Other,1,165,Lonoke,
Walmart,Field Facility,Supercenter,170,B - CENTRAL,13 - LOUISIANA/ S MS,134,925 Keyser Ave,Natchitoches,LA,Louisiana,71457,31.7525196930463,-93.0652210963729,U,SuperCenter,5,"Old,more than 13 months since re-grand",1977-10-01,,202307,0,NOT ASSIGNED,WM >=$80MM,N,0,N,N,N,N,,All Other,1,380,Natchitoches,
Walmart,Field Facility,Supercenter,171,B - CENTRAL,42 - ARKANSAS/ NE OK,327,950 California Ave SW,Camden,AR,Arkansas,71701,33.5687633448358,-92.8388598490326,U,SuperCenter,5,"Old,more than 13 months since re-grand",1977-11-01,,153865,0,NOT ASSIGNED,WM $40MM - $60MM,N,0,N,N,N,N,,All Other,1,247,Ouachita,
Walmart,Field Facility,Supercenter,172,B - CENTRAL,40 - MISSOURI/ E KS,336,1701 A Roy Dr,Washington,MO,Missouri,63090,38.5404943939139,-90.9922044190387,U,SuperCenter,5,"Old,more than 13 months since re-grand",1977-07-01,,203881,0,NOT ASSIGNED,WM >=$80MM,N,0,N,N,N,N,,All Other,1,374,Franklin,
Walmart,Field Facility,Supercenter,173,B - CENTRAL,40 - MISSOURI/ E KS,335,1 Memorial Dr,Potosi,MO,Missouri,63664,37.9247502859252,-90.7731118961104,U,SuperCenter,5,"Old,more than 13 months since re-grand",1977-10-01,,111607,0,NOT ASSIGNED,WM $40MM - $60MM,N,0,N,N,N,N,,All Other,1,200,Washington,
Walmart,Field Facility,Supercenter,174,A - SOUTHEAST,9 - CENTRAL FLORIDA,92,2700 Clearlake Rd,Cocoa,FL,Florida,32922,28.39447,-80.7548141133875,U,SuperCenter,5,"Old,more than 13 months since re-grand",1985-10-15,,207498,0,NOT ASSIGNED,WM >=$80MM,N,0,N,N,N,N,,All Other,1,317,Brevard,
Walmart,Field Facility,Supercenter,175,A - SOUTHEAST,12 - TENNESSEE,144,560 W Poplar Ave,Collierville,TN,Tennessee,38017,35.0460228049646,-89.6801216401858,U,SuperCenter,5,"Old,more than 13 months since re-grand",1977-11-01,,199533,0,NOT ASSIGNED,WM >=$80MM,N,0,N,N,N,N,,All Other,1,287,Shelby,
Walmart,Field Facility,Supercenter,176,A - SOUTHEAST,14 - NORTH MISS/ ALABAMA,137,822 City Ave S,Ripley,MS,Mississippi,38663,34.7224246707595,-88.9502815004384,R,Regular Wal-Mart,5,"Old,more than 13 months since re-grand",1977-07-01,,59022,0,NOT ASSIGNED,WM $20MM - $40MM,N,0,N,N,N,N,,All Other,1,108,Tippah,
Walmart,Field Facility,Supercenter,177,A - SOUTHEAST,12 - TENNESSEE,146,1210 Mineral Wells Ave,Paris,TN,Tennessee,38242,36.283462245654,-88.3074835289635,U,SuperCenter,5,"Old,more than 13 months since re-grand",1977-11-01,,186337,0,NOT ASSIGNED,WM >=$80MM,N,0,N,N,N,Y,,All Other,1,286,Henry,
Walmart,Field Facility,Supercenter,178,B - CENTRAL,44 - OK/ NW TEXAS/ W TEXAS,344,914 E Oklahoma Blvd,Alva,OK,Oklahoma,73717,36.7976871325916,-98.64521,U,SuperCenter,5,"Old,more than 13 months since re-grand",1977-11-01,,109450,0,NOT ASSIGNED,WM $20MM - $40MM,N,0,N,N,N,N,,All Other,1,133,Woods,
Walmart,Field Facility,Supercenter,179,B - CENTRAL,40 - MISSOURI/ E KS,357,3520 W Sunshine St,Springfield,MO,Missouri,65807,37.1828028674084,-93.35212,U,SuperCenter,5,"Old,more than 13 months since re-grand",1977-02-01,,158849,0,NOT ASSIGNED,WM $60MM - $80MM,N,0,N,N,N,N,,All Other,1,286,Greene,
Walmart,Field Facility,Supercenter,180,B - CENTRAL,5 - DALLAS/ N TEXAS,46,1311 S Jackson St,Jacksonville,TX,Texas,75766,31.9514733510395,-95.2635424631604,U,SuperCenter,5,"Old,more than 13 months since re-grand",1978-03-14,,151315,0,NOT ASSIGNED,WM >=$80MM,N,0,N,N,N,N,,All Other,1,301,Cherokee,
Walmart,Field Facility,Supercenter,181,B - CENTRAL,44 - OK/ NW TEXAS/ W TEXAS,47,800 James Bowie Dr,New Boston,TX,Texas,75570,33.4730991119198,-94.4062671299974,U,SuperCenter,5,"Old,more than 13 months since re-grand",1978-08-08,,155070,0,NOT ASSIGNED,WM $60MM - $80MM,N,0,N,N,N,N,,All Other,1,214,Bowie,
Walmart,Field Facility,Supercenter,182,A - SOUTHEAST,14 - NORTH MISS/ ALABAMA,136,1831 Highway 1 S,Greenville,MS,Mississippi,38701,33.3680836452029,-91.0403833853962,U,SuperCenter,5,"Old,more than 13 months since re-grand",1979-06-01,,204167,0,NOT ASSIGNED,WM >=$80MM,Y,0,N,N,N,N,,All Other,1,321,Washington,
Walmart,Field Facility,Supercenter,183,A - SOUTHEAST,14 - NORTH MISS/ ALABAMA,138,14320 Highway 15 S,Louisville,MS,Mississippi,39339,33.11202,-89.00006,U,SuperCenter,5,"Old,more than 13 months since re-grand",1977-10-01,,99704,0,NOT ASSIGNED,WM $40MM - $60MM,N,0,N,N,N,N,,All Other,1,178,Winston,
Walmart,Field Facility,Supercenter,184,B - CENTRAL,40 - MISSOURI/ E KS,361,600 NE Coronado Dr,Blue Springs,MO,Missouri,64014,39.026640903888,-94.254797242643,U,SuperCenter,5,"Old,more than 13 months since re-grand",1978-02-01,,203091,0,NOT ASSIGNED,WM >=$80MM,N,0,N,N,N,N,,All Other,1,343,Jackson,
Walmart,Field Facility,Supercenter,185,B - CENTRAL,44 - OK/ NW TEXAS/ W TEXAS,350,1800 Lawrence St,Gainesville,TX,Texas,76240,33.6428495205479,-97.13704527758,U,SuperCenter,5,"Old,more than 13 months since re-grand",1993-07-21,,208003,0,NOT ASSIGNED,WM >=$80MM,N,0,N,N,N,N,,All Other,1,333,Cooke,
Walmart,Field Facility,Supercenter,186,M - WEST,47 - CO/ WY/ KS,409,301 S Village Rd,El Dorado,KS,Kansas,67042,37.8166645452073,-96.8897535906757,U,SuperCenter,5,"Old,more than 13 months since re-grand",1977-11-01,,187437,0,NOT ASSIGNED,WM $40MM - $60MM,N,0,N,N,N,N,,All Other,1,212,Butler,
Walmart,Support,SUPERCENTER,187,X - US RETAIL SD X,99 - RETAIL REGION 99,999,Tba 0187,Killeen,TX,Texas,76541,31.11461,-97.72837,U,SuperCenter,7,Closed,2017-09-11,2017-09-11,2,0,NOT ASSIGNED,,,0,All Other,All Other,All Other,All Other,,All Other,1,0,BELL,
Walmart,Field Facility,Supercenter,188,B - CENTRAL,40 - MISSOURI/ E KS,335,3439 William St,Cape Girardeau,MO,Missouri,63701,37.3029533276077,-89.5852438467032,U,SuperCenter,5,"Old,more than 13 months since re-grand",1977-07-01,,172054,0,NOT ASSIGNED,WM >=$80MM,N,0,N,N,N,N,,All Other,1,366,Cape Girardeau,
Walmart,Field Facility,Supercenter,189,B - CENTRAL,40 - MISSOURI/ E KS,359,2206 N Baltimore St,Kirksville,MO,Missouri,63501,40.2158577598363,-92.5823800834691,U,SuperCenter,5,"Old,more than 13 months since re-grand",1977-07-01,,194959,0,NOT ASSIGNED,WM >=$80MM,N,0,N,N,N,N,,All Other,1,277,Adair,
Walmart,Field Facility,Supercenter,190,B - CENTRAL,42 - ARKANSAS/ NE OK,329,1500 1st St,Kennett,MO,Missouri,63857,36.2367775902272,-90.0390074730903,U,SuperCenter,5,"Old,more than 13 months since re-grand",1977-07-01,,146397,0,NOT ASSIGNED,WM $60MM - $80MM,N,0,N,N,N,N,,All Other,1,234,Dunklin,
Walmart,Field Facility,Supercenter,191,E - NORTHEAST,75 - MD AND DC,292,950 Edwards Ferry Rd NE,Leesburg,VA,Virginia,20176,39.1138271109264,-77.5398031415722,T,Test or Control,7,Closed,1993-06-01,2019-05-29,97211,0,NOT ASSIGNED,,N,0,N,N,N,N,,All Other,1,0,Loudoun,
Walmart,Field Facility,Supercenter,192,A - SOUTHEAST,12 - TENNESSEE,151,2200 Brookmeade Dr,Columbia,TN,Tennessee,38401,35.5955340981078,-87.0541457280998,U,SuperCenter,5,"Old,more than 13 months since re-grand",1981-09-15,,224043,0,NOT ASSIGNED,WM >=$80MM,N,0,N,N,N,N,,All Other,1,303,Maury,
Walmart,Field Facility,Supercenter,193,X - RETAIL - ADMIN SUBDIVISION X,98 - RETAIL - ADMIN REGION 98,998,10070 E 40th Ave,Denver,CO,Colorado,80238,39.7727585315699,-104.868603395423,G,General Office,2,"New,open 13 months or more",2016-08-01,,0,0,NOT ASSIGNED,,N,0,N,N,N,N,,All Other,1,0,Denver,
Walmart,Field Facility,Supercenter,194,B - CENTRAL,6 - HOUSTON,60,4900 Garth Rd,Baytown,TX,Texas,77521,29.7763126775584,-94.9775603754985,U,SuperCenter,5,"Old,more than 13 months since re-grand",1985-01-22,,224043,0,NOT ASSIGNED,WM >=$80MM,N,0,N,N,N,N,,All Other,1,356,Harris,
Walmart,Field Facility,Supercenter,195,B - CENTRAL,40 - MISSOURI/ E KS,360,2203 Patsy Ln,Excelsior Springs,MO,Missouri,64024,39.3303172793891,-94.2672546631613,U,SuperCenter,5,"Old,more than 13 months since re-grand",1977-07-01,,207790,0,NOT ASSIGNED,WM $60MM - $80MM,N,0,N,N,N,N,,All Other,1,280,Clay,
Walmart,Field Facility,Supercenter,196,B - CENTRAL,43 - S IL/ W INDIANA,271,1450 E Main St,Carbondale,IL,Illinois,62901,37.7367233985743,-89.1846575062814,U,SuperCenter,5,"Old,more than 13 months since re-grand",1977-07-01,,201626,0,NOT ASSIGNED,WM $60MM - $80MM,N,0,N,N,N,N,,All Other,1,276,Jackson,
Walmart,Field Facility,Supercenter,197,B - CENTRAL,25 - NORTHERN ILLINOIS,278,1730 E Jackson St,Macomb,IL,Illinois,61455,40.4587271325916,-90.64168,U,SuperCenter,5,"Old,more than 13 months since re-grand",1977-07-01,,209840,0,NOT ASSIGNED,WM $60MM - $80MM,N,0,N,N,N,N,,All Other,1,275,McDonough,
Walmart,Field Facility,Supercenter,198,B - CENTRAL,43 - S IL/ W INDIANA,272,1870 W Main St,Salem,IL,Illinois,62881,38.6234056017495,-88.9807161538991,U,SuperCenter,5,"Old,more than 13 months since re-grand",1977-07-01,,155078,0,NOT ASSIGNED,WM $60MM - $80MM,Y,0,N,N,N,N,,All Other,1,275,Marion,
Walmart,Field Facility,Supercenter,199,B - CENTRAL,25 - NORTHERN ILLINOIS,278,825 Malerich Dr,Lincoln,IL,Illinois,62656,40.1543253125,-89.3965794200427,U,SuperCenter,5,"Old,more than 13 months since re-grand",1977-07-01,,193985,0,NOT ASSIGNED,WM $60MM - $80MM,N,0,N,N,N,N,,All Other,1,248,Logan,
Walmart,Field Facility,Supercenter,200,B - CENTRAL,25 - NORTHERN ILLINOIS,275,1941 W Morton Ave,Jacksonville,IL,Illinois,62650,39.7228277955167,-90.2706271730132,U,SuperCenter,5,"Old,more than 13 months since re-grand",1977-07-01,,206449,0,NOT ASSIGNED,WM >=$80MM,N,0,N,N,N,N,,All Other,1,297,Morgan,
Walmart,Field Facility,Supercenter,201,B - CENTRAL,43 - S IL/ W INDIANA,341,2608 Green Mount Commons Dr,Belleville,IL,Illinois,62221,38.5203972025431,-89.923826072535,U,SuperCenter,5,"Old,more than 13 months since re-grand",1977-07-01,,203748,0,NOT ASSIGNED,WM >=$80MM,N,0,N,N,N,N,,All Other,1,388,Saint Clair,
Walmart,Field Facility,Supercenter,202,B - CENTRAL,5 - DALLAS/ N TEXAS,51,16066 State Highway 121,Frisco,TX,Texas,75035,33.15739,-96.77356,U,SuperCenter,2,"New,open 13 months or more",2018-01-24,,186933,0,NOT ASSIGNED,WM $60MM - $80MM,N,0,N,N,N,N,,All Other,1,222,Collin,
Walmart,Field Facility,Supercenter,203,B - CENTRAL,40 - MISSOURI/ E KS,359,937 Park Circle Dr,Brookfield,MO,Missouri,64628,39.7698828674084,-93.07303,U,SuperCenter,5,"Old,more than 13 months since re-grand",1978-08-29,,110715,0,NOT ASSIGNED,WM $40MM - $60MM,N,0,N,N,N,N,,All Other,1,147,Linn,
Walmart,Field Facility,Supercenter,204,E - NORTHEAST,"41 - KENTUCKY, WEST VIRGINIA",253,1500 US Highway 62 W,Princeton,KY,Kentucky,42445,37.1080763333399,-87.9183631149624,U,SuperCenter,5,"Old,more than 13 months since re-grand",1978-02-14,,158067,0,NOT ASSIGNED,WM $60MM - $80MM,N,0,N,N,N,N,,All Other,1,227,Caldwell,
Walmart,Field Facility,Supercenter,205,A - SOUTHEAST,14 - NORTH MISS/ ALABAMA,138,1002 W Beacon St,Philadelphia,MS,Mississippi,39350,32.7697203307937,-89.1287898495206,U,SuperCenter,5,"Old,more than 13 months since re-grand",1978-03-28,,146398,0,NOT ASSIGNED,WM >=$80MM,N,0,N,N,N,N,,All Other,1,262,Neshoba,
Walmart,Field Facility,Supercenter,206,B - CENTRAL,5 - DALLAS/ N TEXAS,52,2041 Redbud Blvd,McKinney,TX,Texas,75069,33.220514199648,-96.6292394934433,U,SuperCenter,5,"Old,more than 13 months since re-grand",1978-03-28,,203473,0,NOT ASSIGNED,WM $60MM - $80MM,Y,0,N,N,N,N,,All Other,1,298,Collin,
Walmart,Field Facility,Supercenter,207,B - CENTRAL,42 - ARKANSAS/ NE OK,345,772 S Airport Rd,Cleveland,OK,Oklahoma,74020,36.2972785295091,-96.4619128160485,U,SuperCenter,5,"Old,more than 13 months since re-grand",1978-03-21,,89734,0,NOT ASSIGNED,WM $20MM - $40MM,N,0,N,N,N,N,,All Other,1,117,Pawnee,
Walmart,Support,REGULAR WAL-MART,208,X - US RETAIL SD X,99 - RETAIL REGION 99,999,2970 Military Ave,Baxter Springs,KS,Kansas,66713,37.0070202939267,-94.7381569653212,R,Regular Wal-Mart,7,Closed,1978-04-04,2015-04-28,32868,0,NOT ASSIGNED,Supercenter Low Volume,,0,All Other,All Other,All Other,All Other,,All Other,1,0,Cherokee,
Walmart,Field Facility,Supercenter,209,B - CENTRAL,42 - ARKANSAS/ NE OK,321,1516 N 18th St,Ozark,AR,Arkansas,72949,35.5033114419539,-93.845176479078,R,Regular Wal-Mart,2,"New,open 13 months or more",1978-06-01,,31700,0,NOT ASSIGNED,WM <$20MM,N,0,N,N,N,N,,All Other,1,86,Franklin,
Walmart,Field Facility,Supercenter,210,B - CENTRAL,42 - ARKANSAS/ NE OK,351,500 E Highway St # 270,Holdenville,OK,Oklahoma,74848,35.0869271325916,-96.38147,R,Regular Wal-Mart,5,"Old,more than 13 months since re-grand",1978-07-18,,50968,0,NOT ASSIGNED,WM <$20MM,N,0,N,N,N,N,,All Other,1,71,Hughes,
Walmart,Field Facility,Supercenter,211,B - CENTRAL,8 - SOUTH TEXAS,76,401 Coke Ave,Hillsboro,TX,Texas,76645,32.0061996875,-97.0985882852744,U,SuperCenter,5,"Old,more than 13 months since re-grand",1978-09-12,,149704,0,NOT ASSIGNED,WM $60MM - $80MM,N,0,N,N,N,N,,All Other,1,238,Hill,
Walmart,Field Facility,Supercenter,212,B - CENTRAL,44 - OK/ NW TEXAS/ W TEXAS,353,333 N Interstate Dr,Norman,OK,Oklahoma,73069,35.2212618461706,-97.4848463934738,U,SuperCenter,5,"Old,more than 13 months since re-grand",1977-11-01,,221941,0,NOT ASSIGNED,WM >=$80MM,N,0,N,N,N,N,,All Other,1,339,Cleveland,
Walmart,Field Facility,Supercenter,213,B - CENTRAL,43 - S IL/ W INDIANA,272,1205 W Ferdon St,Litchfield,IL,Illinois,62056,39.1828071325916,-89.66774,U,SuperCenter,5,"Old,more than 13 months since re-grand",1978-05-16,,185924,0,NOT ASSIGNED,WM >=$80MM,N,0,N,N,N,N,,All Other,1,283,Montgomery,
Walmart,Field Facility,Supercenter,214,B - CENTRAL,6 - HOUSTON,503,800 W Gibson St,Jasper,TX,Texas,75951,30.9063300953993,-94.0141605416323,U,SuperCenter,5,"Old,more than 13 months since re-grand",1978-10-10,,184325,0,NOT ASSIGNED,WM >=$80MM,N,0,N,N,N,N,,All Other,1,296,Jasper,
Walmart,Support,REGULAR WAL-MART,215,X - US RETAIL SD X,99 - RETAIL REGION 99,999,620 S Applegate St,Winona,MS,Mississippi,38967,33.473185,-89.735724399174,R,Regular Wal-Mart,7,Closed,1979-05-15,2018-04-13,44925,0,NOT ASSIGNED,WM <$20MM,,0,All Other,All Other,All Other,All Other,,All Other,1,0,Montgomery,
Walmart,Field Facility,Supercenter,216,B - CENTRAL,43 - S IL/ W INDIANA,271,2802 Outer Road Drive,Marion,IL,Illinois,62959,37.7454985076475,-88.9718462162862,U,SuperCenter,5,"Old,more than 13 months since re-grand",1979-03-27,,216734,0,NOT ASSIGNED,WM >=$80MM,N,0,N,N,N,N,,All Other,1,355,WILLIAMSON,
Walmart,Field Facility,Supercenter,217,B - CENTRAL,5 - DALLAS/ N TEXAS,53,801 W Main St,Lewisville,TX,Texas,75067,33.0456593662502,-97.0125964204055,U,SuperCenter,5,"Old,more than 13 months since re-grand",1978-09-05,,200422,0,NOT ASSIGNED,WM $60MM - $80MM,N,0,N,N,N,N,,All Other,1,291,Denton,
Walmart,Field Facility,Supercenter,218,A - SOUTHEAST,12 - TENNESSEE,147,1017 Mulberry Ave,Selmer,TN,Tennessee,38375,35.1404913050256,-88.5720743066297,U,SuperCenter,5,"Old,more than 13 months since re-grand",1979-04-10,,112780,0,NOT ASSIGNED,WM $40MM - $60MM,N,0,N,N,N,N,,All Other,1,142,McNairy,
Walmart,Field Facility,Supercenter,219,B - CENTRAL,40 - MISSOURI/ E KS,359,3201 W Broadway Blvd,Sedalia,MO,Missouri,65301,38.7098274052779,-93.2692508476769,U,SuperCenter,5,"Old,more than 13 months since re-grand",1978-10-03,,201879,0,NOT ASSIGNED,WM >=$80MM,N,0,N,N,N,N,,All Other,1,352,Pettis,
Walmart,Field Facility,Supercenter,220,B - CENTRAL,5 - DALLAS/ N TEXAS,48,951 SW Wilshire Blvd,Burleson,TX,Texas,76028,32.5292355704308,-97.3396090650789,U,SuperCenter,5,"Old,more than 13 months since re-grand",1978-10-17,,199026,0,NOT ASSIGNED,WM >=$80MM,N,0,N,N,N,N,,All Other,1,386,Johnson,
Walmart,Field Facility,Supercenter,221,B - CENTRAL,44 - OK/ NW TEXAS/ W TEXAS,352,1200 Garth Brooks Blvd,Yukon,OK,Oklahoma,73099,35.49099,-97.7604784247629,U,SuperCenter,5,"Old,more than 13 months since re-grand",1978-10-31,,142857,0,NOT ASSIGNED,WM >=$80MM,N,0,N,N,N,N,,All Other,1,319,Canadian,
Walmart,Field Facility,Supercenter,222,B - CENTRAL,43 - S IL/ W INDIANA,271,1410 N Market St,Sparta,IL,Illinois,62286,38.1409084241639,-89.7032879803585,U,SuperCenter,5,"Old,more than 13 months since re-grand",1978-12-05,,149407,0,NOT ASSIGNED,WM $60MM - $80MM,N,0,N,N,N,N,,All Other,1,220,Randolph,
Walmart,Support,SUPERCENTER,223,X - US RETAIL SD X,99 - RETAIL REGION 99,999,Tba 0223,Frisco,TX,Texas,75024,33.07719,-96.80713,U,SuperCenter,7,Closed,2017-10-12,2017-10-12,2,0,NOT ASSIGNED,,,0,All Other,All Other,All Other,All Other,,All Other,1,0,COLLIN,
Walmart,Field Facility,Supercenter,224,B - CENTRAL,43 - S IL/ W INDIANA,272,110 Davidson Rd,Mount Vernon,IL,Illinois,62864,38.3123403793978,-88.9601475093208,U,SuperCenter,5,"Old,more than 13 months since re-grand",1978-06-13,,182721,0,NOT ASSIGNED,WM >=$80MM,N,0,N,N,N,N,,All Other,1,259,Jefferson,
Walmart,Field Facility,Supercenter,225,B - CENTRAL,44 - OK/ NW TEXAS/ W TEXAS,350,2705 W Broadway Ave,Sulphur,OK,Oklahoma,73086,34.5059828674084,-97.0045316981132,U,SuperCenter,5,"Old,more than 13 months since re-grand",1978-10-24,,99578,0,NOT ASSIGNED,WM $40MM - $60MM,N,0,N,N,N,N,,All Other,1,161,Murray,
Walmart,Field Facility,Supercenter,226,B - CENTRAL,44 - OK/ NW TEXAS/ W TEXAS,47,201 Loop 59,Atlanta,TX,Texas,75551,33.114755940744,-94.182504264242,U,SuperCenter,5,"Old,more than 13 months since re-grand",1978-10-17,,149704,0,NOT ASSIGNED,WM $60MM - $80MM,N,0,N,N,N,N,,All Other,1,211,Cass,
Walmart,Field Facility,Supercenter,227,B - CENTRAL,44 - OK/ NW TEXAS/ W TEXAS,344,2400 S Country Club Rd,El Reno,OK,Oklahoma,73036,35.5117494594595,-97.9727884682986,U,SuperCenter,5,"Old,more than 13 months since re-grand",1978-10-10,,146397,0,NOT ASSIGNED,WM $60MM - $80MM,N,0,N,N,N,N,,All Other,1,250,Canadian,
Walmart,Field Facility,Supercenter,228,B - CENTRAL,5 - DALLAS/ N TEXAS,48,1616 W Henderson St,Cleburne,TX,Texas,76033,32.338598148725,-97.4135427801699,U,SuperCenter,5,"Old,more than 13 months since re-grand",1978-09-19,,204129,0,NOT ASSIGNED,WM >=$80MM,N,0,N,N,N,N,,All Other,1,361,Johnson,
Walmart,Field Facility,Supercenter,229,B - CENTRAL,42 - ARKANSAS/ NE OK,329,512 Industrial Park Dr,Trumann,AR,Arkansas,72472,35.6814335464542,-90.5519870330958,U,SuperCenter,5,"Old,more than 13 months since re-grand",1978-10-31,,99704,0,NOT ASSIGNED,WM $40MM - $60MM,N,0,N,N,N,N,,All Other,1,147,Poinsett,
Walmart,Field Facility,Supercenter,230,B - CENTRAL,42 - ARKANSAS/ NE OK,321,1501 E Walnut St,Paris,AR,Arkansas,72855,35.2920570987443,-93.7166462673699,R,Regular Wal-Mart,5,"Old,more than 13 months since re-grand",1978-12-05,,32760,0,NOT ASSIGNED,WM <$20MM,N,0,N,N,N,N,,All Other,1,78,LOGAN,
Walmart,Field Facility,Supercenter,231,B - CENTRAL,44 - OK/ NW TEXAS/ W TEXAS,350,1419 N Country Club Rd,Ada,OK,Oklahoma,74820,34.7884684769099,-96.652538797642,U,SuperCenter,5,"Old,more than 13 months since re-grand",1978-09-19,,201788,0,NOT ASSIGNED,WM >=$80MM,N,0,N,N,N,N,,All Other,1,347,Pontotoc,
Walmart,Field Facility,Supercenter,232,B - CENTRAL,44 - OK/ NW TEXAS/ W TEXAS,350,1983 S Mississippi Ave,Atoka,OK,Oklahoma,74525,34.3634295255968,-96.1428224442214,R,Regular Wal-Mart,5,"Old,more than 13 months since re-grand",1978-09-19,,50968,0,NOT ASSIGNED,WM $20MM - $40MM,N,0,N,N,N,N,,All Other,1,93,Atoka,
Walmart,Field Facility,Supercenter,233,B - CENTRAL,43 - S IL/ W INDIANA,271,300 Leigh Ave,Anna,IL,Illinois,62906,37.4625648194058,-89.224909038332,U,SuperCenter,5,"Old,more than 13 months since re-grand",1978-11-21,,109450,0,NOT ASSIGNED,WM $40MM - $60MM,N,0,N,N,N,N,,All Other,1,157,Union,
Walmart,Field Facility,Supercenter,234,B - CENTRAL,40 - MISSOURI/ E KS,360,8301 N Church Rd,Kansas City,MO,Missouri,64158,39.2422569673855,-94.4615947964852,U,SuperCenter,5,"Old,more than 13 months since re-grand",1978-12-05,,210572,0,NOT ASSIGNED,WM >=$80MM,N,0,N,N,N,Y,,All Other,1,377,Clay,
Walmart,Support,REGULAR WAL-MART,235,X - US RETAIL SD X,99 - RETAIL REGION 99,999,1900 W Main St,Corning,AR,Arkansas,72422,36.4115171325916,-90.59526,R,Regular Wal-Mart,7,Closed,1978-11-28,2018-09-30,32100,0,NOT ASSIGNED,WM <$20MM,,0,All Other,All Other,All Other,All Other,,All Other,1,0,Clay,
Walmart,Field Facility,Supercenter,236,B - CENTRAL,6 - HOUSTON,503,1225 E Loop 304,Crockett,TX,Texas,75835,31.3170559897243,-95.4364781738452,U,SuperCenter,5,"Old,more than 13 months since re-grand",1979-02-01,,109450,0,NOT ASSIGNED,WM $40MM - $60MM,N,0,N,N,N,N,,All Other,1,180,Houston,
Walmart,Field Facility,Supercenter,237,B - CENTRAL,43 - S IL/ W INDIANA,271,710 S Commercial St,Harrisburg,IL,Illinois,62946,37.7287300680349,-88.5362421187622,U,SuperCenter,5,"Old,more than 13 months since re-grand",1978-11-14,,184103,0,NOT ASSIGNED,WM $60MM - $80MM,N,0,N,N,N,N,,All Other,1,246,Saline,
Walmart,Field Facility,Supercenter,238,A - SOUTHEAST,12 - TENNESSEE,147,1655 W College St,Pulaski,TN,Tennessee,38478,35.2037998652314,-87.0604236506407,U,SuperCenter,5,"Old,more than 13 months since re-grand",1979-02-13,,149704,0,NOT ASSIGNED,WM $60MM - $80MM,N,0,N,N,N,N,,All Other,1,242,Giles,
Walmart,Field Facility,Supercenter,239,A - SOUTHEAST,14 - NORTH MISS/ ALABAMA,138,220 Veterans Memorial Dr,Kosciusko,MS,Mississippi,39090,33.0553425444592,-89.5682586115772,U,SuperCenter,5,"Old,more than 13 months since re-grand",1979-07-31,,109630,0,NOT ASSIGNED,WM $40MM - $60MM,N,0,N,N,N,N,,All Other,1,196,Attala,
Walmart,Field Facility,Supercenter,240,B - CENTRAL,44 - OK/ NW TEXAS/ W TEXAS,47,2701 State Highway 50,Commerce,TX,Texas,75428,33.232192288885,-95.9126016864881,U,SuperCenter,5,"Old,more than 13 months since re-grand",1979-06-19,,109630,0,NOT ASSIGNED,WM $40MM - $60MM,N,0,N,N,N,N,,All Other,1,170,Hunt,
Walmart,Field Facility,Supercenter,241,B - CENTRAL,42 - ARKANSAS/ NE OK,323,4206 S Pleasant Crossing Blvd,Rogers,AR,Arkansas,72758,36.2799531624607,-94.1503616587442,R,Regular Wal-Mart,2,"New,open 13 months or more",2017-01-31,,2500,0,NOT ASSIGNED,,N,0,N,N,N,N,,All Other,1,10,BENTON,
Walmart,Field Facility,Supercenter,242,B - CENTRAL,40 - MISSOURI/ E KS,410,310 Hedge Ln,Paola,KS,Kansas,66071,38.5713908022584,-94.8563239841457,U,SuperCenter,5,"Old,more than 13 months since re-grand",1979-09-18,,144298,0,NOT ASSIGNED,WM $40MM - $60MM,N,0,N,N,N,N,,All Other,1,196,Miami,
Walmart,Field Facility,Supercenter,243,B - CENTRAL,43 - S IL/ W INDIANA,339,1971 Wentzville Pkwy,Wentzville,MO,Missouri,63385,38.8162157586202,-90.8767932386132,U,SuperCenter,5,"Old,more than 13 months since re-grand",1980-10-15,,216844,0,NOT ASSIGNED,WM >=$80MM,N,0,N,N,N,N,,All Other,1,371,Saint Charles,
Walmart,Field Facility,Supercenter,244,B - CENTRAL,13 - LOUISIANA/ S MS,135,5940 Highway 167 N,Winnfield,LA,Louisiana,71483,31.9503241959709,-92.6538315406202,U,SuperCenter,5,"Old,more than 13 months since re-grand",1979-07-31,,109630,0,NOT ASSIGNED,WM $20MM - $40MM,N,0,N,N,N,N,,All Other,1,141,Winn,
Walmart,Field Facility,Supercenter,245,B - CENTRAL,5 - DALLAS/ N TEXAS,44,1301 FM 1187,Crowley,TX,Texas,76036,32.5682045377539,-97.380769051346,R,Regular Wal-Mart,2,"New,open 13 months or more",2017-01-18,,2580,0,NOT ASSIGNED,,N,0,N,N,N,N,,All Other,1,10,TARRANT,
Walmart,Field Facility,Supercenter,246,B - CENTRAL,42 - ARKANSAS/ NE OK,345,700 W Rogers Blvd,Skiatook,OK,Oklahoma,74070,36.3687171325916,-96.0109081763838,U,SuperCenter,5,"Old,more than 13 months since re-grand",1979-09-18,,104939,0,NOT ASSIGNED,WM $40MM - $60MM,N,0,N,N,N,N,,All Other,1,175,Osage,
Walmart,Field Facility,Supercenter,247,B - CENTRAL,42 - ARKANSAS/ NE OK,351,605 E Main St,Henryetta,OK,Oklahoma,74437,35.4396545828073,-95.9749530131338,R,Regular Wal-Mart,2,"New,open 13 months or more",1979-03-13,,46596,0,NOT ASSIGNED,WM $20MM - $40MM,N,0,N,N,N,N,,All Other,1,93,Okmulgee,
Walmart,Field Facility,Supercenter,248,B - CENTRAL,8 - SOUTH TEXAS,76,1406 E Milam St,Mexia,TX,Texas,76667,31.6854984090345,-96.4576678375559,U,SuperCenter,5,"Old,more than 13 months since re-grand",1979-08-28,,157834,0,NOT ASSIGNED,WM $60MM - $80MM,N,0,N,N,N,N,,All Other,1,223,Limestone,
Walmart,Field Facility,Supercenter,249,B - CENTRAL,6 - HOUSTON,503,831 Highway 59 S,Cleveland,TX,Texas,77327,30.3176175616927,-95.103355142263,U,SuperCenter,5,"Old,more than 13 months since re-grand",1979-03-06,,157426,0,NOT ASSIGNED,WM >=$80MM,N,0,N,N,N,N,,All Other,1,262,Liberty,
Walmart,Field Facility,Supercenter,250,B - CENTRAL,40 - MISSOURI/ E KS,357,103 W Polk St,Warsaw,MO,Missouri,65355,38.263590767717,-93.3704270500696,U,SuperCenter,5,"Old,more than 13 months since re-grand",1979-03-27,,107356,0,NOT ASSIGNED,WM $40MM - $60MM,N,0,N,N,N,N,,All Other,1,185,Benton,
Walmart,Field Facility,Supercenter,251,B - CENTRAL,5 - DALLAS/ N TEXAS,45,135 NE Loop 564,Mineola,TX,Texas,75773,32.6881026079908,-95.4834931266258,U,SuperCenter,5,"Old,more than 13 months since re-grand",1979-07-10,,141449,0,NOT ASSIGNED,WM >=$80MM,N,0,N,N,N,N,,All Other,1,263,Wood,
Walmart,Field Facility,Supercenter,252,B - CENTRAL,43 - S IL/ W INDIANA,271,215 E Grantway St,Du Quoin,IL,Illinois,62832,37.9983128674084,-89.2358792307692,U,SuperCenter,5,"Old,more than 13 months since re-grand",1980-03-18,,109630,0,NOT ASSIGNED,WM $40MM - $60MM,N,0,N,N,N,N,,All Other,1,154,Perry,
Walmart,Field Facility,Supercenter,253,B - CENTRAL,43 - S IL/ W INDIANA,272,1316 S State St,Jerseyville,IL,Illinois,62052,39.1063448164267,-90.3166952010392,U,SuperCenter,5,"Old,more than 13 months since re-grand",1986-12-30,,184795,0,NOT ASSIGNED,WM $60MM - $80MM,N,0,N,N,N,N,,All Other,1,237,Jersey,
Walmart,Field Facility,Supercenter,254,B - CENTRAL,43 - S IL/ W INDIANA,273,1001 N West St,Olney,IL,Illinois,62450,38.7441540471019,-88.0947016514212,U,SuperCenter,5,"Old,more than 13 months since re-grand",1979-11-13,,151980,0,NOT ASSIGNED,WM $40MM - $60MM,N,0,N,N,N,N,,All Other,1,175,Richland,
Walmart,Support,Corporate,255,X - RETAIL - ADMIN SUBDIVISION X,98 - RETAIL - ADMIN REGION 98,998,1001 Avenida De Las Americas,Houston,TX,Texas,77010,29.7527566987925,-95.3582045271909,G,General Office,2,"New,open 13 months or more",1974-10-27,,0,0,NOT ASSIGNED,,,0,All Other,All Other,All Other,All Other,,All Other,1,0,Harris,
Walmart,Field Facility,Supercenter,256,B - CENTRAL,43 - S IL/ W INDIANA,341,400 Junction Dr,Glen Carbon,IL,Illinois,62034,38.7754065683367,-89.9548394428108,U,SuperCenter,5,"Old,more than 13 months since re-grand",1979-08-21,,184424,0,NOT ASSIGNED,WM >=$80MM,N,0,N,N,N,N,,All Other,1,385,Madison,
Walmart,Field Facility,Supercenter,257,E - NORTHEAST,"41 - KENTUCKY, WEST VIRGINIA",254,901 US Highway 60 E,Morganfield,KY,Kentucky,42437,37.689554524035,-87.9022331452146,U,SuperCenter,5,"Old,more than 13 months since re-grand",1979-10-30,,109630,0,NOT ASSIGNED,WM $20MM - $40MM,N,0,N,N,N,N,,All Other,1,144,Union,
Walmart,Field Facility,Supercenter,258,A - SOUTHEAST,14 - NORTH MISS/ ALABAMA,4,3929 N Gloster St,Tupelo,MS,Mississippi,38804,34.3092684309638,-88.7068818442435,U,SuperCenter,5,"Old,more than 13 months since re-grand",1980-02-12,,173020,0,NOT ASSIGNED,WM >=$80MM,N,0,N,N,N,N,,All Other,1,306,Lee,
Walmart,Field Facility,Supercenter,259,B - CENTRAL,5 - DALLAS/ N TEXAS,583,782 E Interstate 30,Rockwall,TX,Texas,75087,32.9000806771819,-96.4612595213881,U,SuperCenter,5,"Old,more than 13 months since re-grand",1979-08-28,,202846,0,NOT ASSIGNED,WM >=$80MM,N,0,N,N,N,N,,All Other,1,325,Rockwall,
Walmart,Field Facility,Supercenter,260,B - CENTRAL,5 - DALLAS/ N TEXAS,55,1200 N Highway 77,Waxahachie,TX,Texas,75165,32.3991588173237,-96.8435251336785,U,SuperCenter,5,"Old,more than 13 months since re-grand",1979-07-17,,199026,0,NOT ASSIGNED,WM >=$80MM,N,0,N,N,N,N,,All Other,1,327,Ellis,
Walmart,Field Facility,Supercenter,261,B - CENTRAL,42 - ARKANSAS/ NE OK,325,4019 Central Ave,Hot Springs,AR,Arkansas,71913,34.4555067623626,-93.0633626714777,U,SuperCenter,5,"Old,more than 13 months since re-grand",1981-12-01,,224043,0,NOT ASSIGNED,WM >=$80MM,N,0,N,N,N,N,,All Other,1,325,Garland,
Walmart,Field Facility,Supercenter,262,B - CENTRAL,43 - S IL/ W INDIANA,271,919 Giacone Dr,Benton,IL,Illinois,62812,37.9990771325916,-88.93791,U,SuperCenter,5,"Old,more than 13 months since re-grand",1979-07-31,,157816,0,NOT ASSIGNED,WM $60MM - $80MM,N,0,N,N,N,N,,All Other,1,263,Franklin,
Walmart,Field Facility,Supercenter,263,B - CENTRAL,5 - DALLAS/ N TEXAS,56,Tba 263,Frisco,TX,Texas,75034,33.12634,-96.87926,U,SuperCenter,0,Scheduled to open,2045-12-31,,191485,0,NOT ASSIGNED,,N,0,N,N,N,N,,All Other,1,0,DENTON,
Walmart,Field Facility,Supercenter,264,A - SOUTHEAST,12 - TENNESSEE,149,175 Beasley Dr,Dickson,TN,Tennessee,37055,36.0622558987868,-87.3820040989115,U,SuperCenter,5,"Old,more than 13 months since re-grand",1979-06-26,,175098,0,NOT ASSIGNED,WM >=$80MM,N,0,N,N,N,N,,All Other,1,346,Dickson,
Walmart,Field Facility,Supercenter,265,B - CENTRAL,5 - DALLAS/ N TEXAS,55,1900 W Moore Ave,Terrell,TX,Texas,75160,32.7373571051734,-96.3069167400865,U,SuperCenter,5,"Old,more than 13 months since re-grand",1979-09-25,,184744,0,NOT ASSIGNED,WM >=$80MM,N,0,N,N,N,N,,All Other,1,253,Kaufman,
Walmart,Field Facility,Supercenter,266,B - CENTRAL,5 - DALLAS/ N TEXAS,50,1601 W State Highway 114,Grapevine,TX,Texas,76051,32.9315439325245,-97.0957159447157,U,SuperCenter,5,"Old,more than 13 months since re-grand",1980-06-24,,206385,0,NOT ASSIGNED,WM $60MM - $80MM,N,0,N,N,N,N,,All Other,1,263,Tarrant,
Walmart,Field Facility,Supercenter,267,B - CENTRAL,40 - MISSOURI/ E KS,334,1212 S Madison St,Webb City,MO,Missouri,64870,37.1336720370365,-94.4753136461547,U,SuperCenter,5,"Old,more than 13 months since re-grand",1980-05-01,,151980,0,NOT ASSIGNED,WM $60MM - $80MM,N,0,N,N,N,N,,All Other,1,275,Jasper,
Walmart,Field Facility,Supercenter,268,A - SOUTHEAST,12 - TENNESSEE,147,175 Ji Bell Ln,Savannah,TN,Tennessee,38372,35.224684407408,-88.2162822694396,U,SuperCenter,5,"Old,more than 13 months since re-grand",1979-10-23,,183917,0,NOT ASSIGNED,WM $60MM - $80MM,N,0,N,N,N,N,,All Other,1,235,Hardin,
Walmart,Field Facility,Supercenter,269,B - CENTRAL,44 - OK/ NW TEXAS/ W TEXAS,349,1002 NW Sheridan Rd,Lawton,OK,Oklahoma,73505,34.6196607379,-98.4225365660919,U,SuperCenter,5,"Old,more than 13 months since re-grand",1979-10-29,,197173,0,NOT ASSIGNED,WM >=$80MM,N,0,N,N,N,Y,,All Other,1,345,Comanche,
Walmart,Support,REGULAR WAL-MART,270,X - US RETAIL SD X,99 - RETAIL REGION 99,999,906 W Main St,Homer,LA,Louisiana,71040,32.8024551055279,-93.0556830435974,R,Regular Wal-Mart,7,Closed,1981-08-04,2006-07-01,43770,0,NOT ASSIGNED,,,0,All Other,All Other,All Other,All Other,,All Other,1,0,Claiborne,
Walmart,Field Facility,Supercenter,271,B - CENTRAL,44 - OK/ NW TEXAS/ W TEXAS,349,1341 Highway 287 N,Bowie,TX,Texas,76230,33.51632,-97.92567,U,SuperCenter,5,"Old,more than 13 months since re-grand",1979-08-07,,99704,0,NOT ASSIGNED,WM $40MM - $60MM,N,0,N,N,N,N,,All Other,1,169,Montague,
Walmart,Field Facility,Supercenter,272,A - SOUTHEAST,12 - TENNESSEE,153,3600 Mallory Ln,Franklin,TN,Tennessee,37067,35.9398750296278,-86.8211834554668,U,SuperCenter,5,"Old,more than 13 months since re-grand",1979-08-21,,222357,0,NOT ASSIGNED,WM >=$80MM,N,0,N,N,N,N,,All Other,1,296,Williamson,
Walmart,Field Facility,Supercenter,273,A - SOUTHEAST,14 - NORTH MISS/ ALABAMA,4,100 Interchange Dr,Fulton,MS,Mississippi,38843,34.2409871325916,-88.39776,U,SuperCenter,5,"Old,more than 13 months since re-grand",1979-07-03,,109630,0,NOT ASSIGNED,WM $40MM - $60MM,N,0,N,N,N,N,,All Other,1,173,Itawamba,
Walmart,Field Facility,Supercenter,274,A - SOUTHEAST,14 - NORTH MISS/ ALABAMA,137,1110 Battleground Dr,Iuka,MS,Mississippi,38852,34.8036460674755,-88.203178959228,R,Regular Wal-Mart,2,"New,open 13 months or more",1979-08-21,,41400,0,NOT ASSIGNED,WM <$20MM,N,0,N,N,N,N,,All Other,1,69,Tishomingo,
Walmart,Field Facility,Supercenter,275,B - CENTRAL,6 - HOUSTON,503,1620 W Church St,Livingston,TX,Texas,77351,30.71379540857,-94.955487970653,U,SuperCenter,5,"Old,more than 13 months since re-grand",1979-10-23,,181392,0,NOT ASSIGNED,WM >=$80MM,N,0,N,N,N,N,,All Other,1,360,Polk,
Walmart,Field Facility,Supercenter,276,B - CENTRAL,42 - ARKANSAS/ NE OK,351,1312 E Main St,Stigler,OK,Oklahoma,74462,35.2545719767426,-95.109265262359,U,SuperCenter,5,"Old,more than 13 months since re-grand",1981-02-18,,99581,0,NOT ASSIGNED,WM $20MM - $40MM,N,0,N,N,N,N,,All Other,1,133,Haskell,
Walmart,Field Facility,Supercenter,277,B - CENTRAL,44 - OK/ NW TEXAS/ W TEXAS,353,501 SW 19th St,Moore,OK,Oklahoma,73160,35.3201021114197,-97.4934244694384,U,SuperCenter,5,"Old,more than 13 months since re-grand",1980-03-04,,204691,0,NOT ASSIGNED,WM >=$80MM,N,0,N,N,N,N,,All Other,1,384,Cleveland,
Walmart,Field Facility,Supercenter,278,B - CENTRAL,13 - LOUISIANA/ S MS,127,1645 E Bert Kouns Industrial Loop # L,Shreveport,LA,Louisiana,71105,32.4307595541191,-93.713899709796,U,SuperCenter,5,"Old,more than 13 months since re-grand",1981-06-30,,209427,0,NOT ASSIGNED,WM >=$80MM,N,0,N,N,N,N,,All Other,1,326,Caddo,
Walmart,Field Facility,Supercenter,279,B - CENTRAL,42 - ARKANSAS/ NE OK,321,926 E Collin Raye Dr,De Queen,AR,Arkansas,71832,34.0454130226236,-94.3190178720477,U,SuperCenter,5,"Old,more than 13 months since re-grand",1980-02-12,,107356,0,NOT ASSIGNED,WM $40MM - $60MM,N,0,N,N,N,N,,All Other,1,193,Sevier,
Walmart,Field Facility,Supercenter,280,B - CENTRAL,8 - SOUTH TEXAS,83,709 W US Highway 79,Rockdale,TX,Texas,76567,30.644722698273,-97.0323319254436,U,SuperCenter,5,"Old,more than 13 months since re-grand",1979-10-30,,99704,0,NOT ASSIGNED,WM $40MM - $60MM,N,0,N,N,N,N,,All Other,1,160,Milam,
Walmart,Field Facility,Supercenter,281,B - CENTRAL,42 - ARKANSAS/ NE OK,328,1500 Highway 25B,Heber Springs,AR,Arkansas,72543,35.4968,-91.9981115630572,U,SuperCenter,5,"Old,more than 13 months since re-grand",1979-10-30,,109450,0,NOT ASSIGNED,WM $60MM - $80MM,N,0,N,N,N,N,,All Other,1,204,CLEBURNE,
Walmart,Field Facility,Supercenter,282,E - NORTHEAST,"41 - KENTUCKY, WEST VIRGINIA",257,1550 Nashville Rd,Franklin,KY,Kentucky,42134,36.6961767404612,-86.5713159211524,U,SuperCenter,5,"Old,more than 13 months since re-grand",1980-09-30,,151980,0,NOT ASSIGNED,WM $60MM - $80MM,N,0,N,N,N,N,,All Other,1,253,Simpson,
Walmart,Field Facility,Supercenter,283,B - CENTRAL,13 - LOUISIANA/ S MS,66,795 Texas Ave,Bridge City,TX,Texas,77611,30.0239117568475,-93.843334003826,R,Regular Wal-Mart,2,"New,open 13 months or more",1980-02-26,,52800,0,NOT ASSIGNED,WM $20MM - $40MM,N,0,N,N,N,N,,All Other,1,96,Orange,
Walmart,Field Facility,Supercenter,284,B - CENTRAL,5 - DALLAS/ N TEXAS,44,930 N Walnut Creek Dr Ste 800,Mansfield,TX,Texas,76063,32.5776906065229,-97.1324188982522,U,SuperCenter,5,"Old,more than 13 months since re-grand",1979-09-25,,205187,0,NOT ASSIGNED,WM >=$80MM,N,0,N,N,N,N,,All Other,1,409,Tarrant,
Walmart,Field Facility,Supercenter,285,B - CENTRAL,6 - HOUSTON,503,141 Interstate 45 S,Huntsville,TX,Texas,77340,30.7150085193137,-95.5683457061211,U,SuperCenter,5,"Old,more than 13 months since re-grand",1979-09-25,,202307,0,NOT ASSIGNED,WM >=$80MM,N,0,N,N,N,N,,All Other,1,311,Walker,
Walmart,Field Facility,Supercenter,286,B - CENTRAL,5 - DALLAS/ N TEXAS,55,700 E Ennis Ave,Ennis,TX,Texas,75119,32.3310923849611,-96.6208032153785,U,SuperCenter,5,"Old,more than 13 months since re-grand",1979-12-04,,183918,0,NOT ASSIGNED,WM $60MM - $80MM,N,0,N,N,N,N,,All Other,1,282,Ellis,
Walmart,Field Facility,Supercenter,287,A - SOUTHEAST,14 - NORTH MISS/ ALABAMA,11,1801 Highway 78 E,Jasper,AL,Alabama,35501,33.8445320821471,-87.2529450647258,U,SuperCenter,5,"Old,more than 13 months since re-grand",1979-11-27,,177489,0,NOT ASSIGNED,WM >=$80MM,N,0,N,N,N,N,,All Other,1,361,Walker,
Walmart,Field Facility,Supercenter,288,B - CENTRAL,6 - HOUSTON,503,115 Cobb Mill Rd,Woodville,TX,Texas,75979,30.7646328783935,-94.419002019976,U,SuperCenter,5,"Old,more than 13 months since re-grand",1979-10-30,,104939,0,NOT ASSIGNED,WM $40MM - $60MM,N,0,N,N,N,N,,All Other,1,184,Tyler,
Walmart,Field Facility,Supercenter,289,B - CENTRAL,42 - ARKANSAS/ NE OK,327,US 65 South,McGehee,AR,Arkansas,71654,33.62363,-91.35742,R,Regular Wal-Mart,2,"New,open 13 months or more",1979-10-30,,43800,0,NOT ASSIGNED,WM <$20MM,N,0,N,N,N,N,,All Other,1,86,DESHA,
Walmart,Field Facility,Supercenter,290,B - CENTRAL,8 - SOUTH TEXAS,77,1114 E Sarah Dewitt Dr,Gonzales,TX,Texas,78629,29.5191149589402,-97.4509027933637,U,SuperCenter,5,"Old,more than 13 months since re-grand",1980-07-01,,123130,0,NOT ASSIGNED,WM $40MM - $60MM,N,0,N,N,N,N,,All Other,1,168,GONZALES,
Walmart,Field Facility,Supercenter,291,T - RETAIL - ADMIN SUBDIVISION T,99 - RETAIL - ADMIN REGION 99,999,Closed Store,Hearne,TX,Texas,77859,30.868,-96.51925,G,General Office,7,Closed,1993-03-03,2009-01-30,0,0,NOT ASSIGNED,,N,0,N,N,N,N,,All Other,1,0,ROBERTSON,
Walmart,Field Facility,Supercenter,292,B - CENTRAL,8 - SOUTH TEXAS,87,1904 S Colorado St,Lockhart,TX,Texas,78644,29.8565399237426,-97.6681219829572,U,SuperCenter,5,"Old,more than 13 months since re-grand",1980-08-12,,119646,0,NOT ASSIGNED,WM $40MM - $60MM,N,0,N,N,N,N,,All Other,1,154,Caldwell,
Walmart,Field Facility,Supercenter,293,B - CENTRAL,6 - HOUSTON,85,1712 E Washington Ave,Navasota,TX,Texas,77868,30.3963460521636,-96.0725359268619,R,Regular Wal-Mart,2,"New,open 13 months or more",1980-05-28,,43620,0,NOT ASSIGNED,WM $20MM - $40MM,N,0,N,N,N,N,,All Other,1,90,Grimes,
Walmart,Field Facility,Supercenter,294,E - NORTHEAST,"41 - KENTUCKY, WEST VIRGINIA",254,1725 West Everely Br,Central City,KY,Kentucky,42330,37.31197,-87.10437,U,SuperCenter,5,"Old,more than 13 months since re-grand",1980-07-29,,149704,0,NOT ASSIGNED,WM $60MM - $80MM,N,0,N,N,N,N,,All Other,1,246,MUHLENBERG,
Walmart,Field Facility,Supercenter,295,B - CENTRAL,43 - S IL/ W INDIANA,340,131 Eureka Towne Center Dr,Eureka,MO,Missouri,63025,38.50671,-90.6554947585754,U,SuperCenter,5,"Old,more than 13 months since re-grand",1980-04-01,,152897,0,NOT ASSIGNED,WM $60MM - $80MM,N,0,N,N,N,N,,All Other,1,250,Saint Louis,
Walmart,Field Facility,Supercenter,296,B - CENTRAL,42 - ARKANSAS/ NE OK,325,1172 N State Highway 7,Dardanelle,AR,Arkansas,72834,35.218104539822,-93.1638371191851,U,SuperCenter,5,"Old,more than 13 months since re-grand",1980-08-28,,99700,0,NOT ASSIGNED,WM $40MM - $60MM,N,0,N,N,N,N,,All Other,1,177,YELL,
Walmart,Field Facility,Supercenter,297,B - CENTRAL,6 - HOUSTON,59,23561 Highway 59,Porter,TX,Texas,77365,30.1075975884753,-95.2349860669057,U,SuperCenter,5,"Old,more than 13 months since re-grand",1981-09-01,,225009,0,NOT ASSIGNED,WM >=$80MM,N,0,N,Y,N,N,,All Other,1,370,Montgomery,
Walmart,Field Facility,Supercenter,298,A - SOUTHEAST,14 - NORTH MISS/ ALABAMA,3,1972 US Highway 431,Boaz,AL,Alabama,35957,34.214221971416,-86.1562001008686,U,SuperCenter,5,"Old,more than 13 months since re-grand",1980-08-12,,183917,0,NOT ASSIGNED,WM >=$80MM,N,0,N,N,N,N,,All Other,1,307,Marshall,
Walmart,Field Facility,Supercenter,299,E - NORTHEAST,"41 - KENTUCKY, WEST VIRGINIA",257,150 Walton Ave,Bowling Green,KY,Kentucky,42104,36.9511759107966,-86.4347579858357,U,SuperCenter,5,"Old,more than 13 months since re-grand",1980-09-30,,201616,0,NOT ASSIGNED,WM >=$80MM,N,0,N,N,N,N,,All Other,1,367,Warren,
Walmart,Field Facility,Supercenter,300,A - SOUTHEAST,14 - NORTH MISS/ ALABAMA,10,1625 Pelham Rd S,Jacksonville,AL,Alabama,36265,33.7890622222222,-85.7613950031696,U,SuperCenter,5,"Old,more than 13 months since re-grand",1980-10-14,,158128,0,NOT ASSIGNED,WM $60MM - $80MM,N,0,N,N,N,N,,All Other,1,289,Calhoun,
Walmart,Field Facility,Supercenter,301,A - SOUTHEAST,14 - NORTH MISS/ ALABAMA,3,340 E Meighan Blvd,Gadsden,AL,Alabama,35903,34.010439233768,-85.9895625960639,U,SuperCenter,5,"Old,more than 13 months since re-grand",1980-08-12,,203091,0,NOT ASSIGNED,WM >=$80MM,N,0,N,N,N,Y,,All Other,1,358,Etowah,
Walmart,Field Facility,Supercenter,302,B - CENTRAL,43 - S IL/ W INDIANA,271,6495 Country Club Rd,Murphysboro,IL,Illinois,62966,37.759470778221,-89.2810656002862,U,SuperCenter,5,"Old,more than 13 months since re-grand",1980-09-30,,156781,0,NOT ASSIGNED,WM $40MM - $60MM,N,0,N,N,N,N,,All Other,1,215,Jackson,
Walmart,Field Facility,Supercenter,303,A - SOUTHEAST,14 - NORTH MISS/ ALABAMA,137,950 Mackie Dr,Holly Springs,MS,Mississippi,38635,34.7472371237254,-89.4576668573591,U,SuperCenter,5,"Old,more than 13 months since re-grand",1980-09-03,,99704,0,NOT ASSIGNED,WM $20MM - $40MM,N,0,N,N,N,N,,All Other,1,146,Marshall,
Walmart,Field Facility,Supercenter,304,A - SOUTHEAST,12 - TENNESSEE,149,3360 Tom Austin Hwy,Springfield,TN,Tennessee,37172,36.4826646789424,-86.8868941541137,U,SuperCenter,5,"Old,more than 13 months since re-grand",1979-10-23,,205851,0,NOT ASSIGNED,WM >=$80MM,N,0,N,N,N,N,,All Other,1,321,Robertson,
Walmart,Field Facility,Supercenter,305,A - SOUTHEAST,14 - NORTH MISS/ ALABAMA,138,905 Highway 16 W,Carthage,MS,Mississippi,39051,32.7279051311725,-89.5475810824889,U,SuperCenter,5,"Old,more than 13 months since re-grand",1979-11-20,,110955,0,NOT ASSIGNED,WM $40MM - $60MM,N,0,N,N,N,N,,All Other,1,183,Leake,
Walmart,Field Facility,Supercenter,306,A - SOUTHEAST,14 - NORTH MISS/ ALABAMA,5,1450 No Brindlee Mt,Arab,AL,Alabama,35016,34.3259,-86.5031,U,SuperCenter,5,"Old,more than 13 months since re-grand",1980-02-26,,155078,0,NOT ASSIGNED,WM $60MM - $80MM,N,0,N,N,N,N,,All Other,1,261,MARSHALL,
Walmart,Field Facility,Supercenter,307,B - CENTRAL,13 - LOUISIANA/ S MS,135,1025 Glenwood Dr,West Monroe,LA,Louisiana,71291,32.5080402639243,-92.1562839606566,U,SuperCenter,5,"Old,more than 13 months since re-grand",1982-11-16,,199026,0,NOT ASSIGNED,WM >=$80MM,N,0,N,N,Y,N,,All Other,1,347,Ouachita,
Walmart,Field Facility,Supercenter,308,A - SOUTHEAST,12 - TENNESSEE,152,2518 Hillsboro Blvd,Manchester,TN,Tennessee,37355,35.4551947987532,-86.0459643115611,U,SuperCenter,5,"Old,more than 13 months since re-grand",1981-02-10,,155850,0,NOT ASSIGNED,WM >=$80MM,N,0,N,N,N,N,,All Other,1,257,Coffee,
Walmart,Field Facility,Supercenter,309,B - CENTRAL,13 - LOUISIANA/ S MS,132,3005 Veterans Memorial Dr,Abbeville,LA,Louisiana,70510,29.9703797255375,-92.0957554706483,U,SuperCenter,5,"Old,more than 13 months since re-grand",1980-10-28,,189417,0,NOT ASSIGNED,WM >=$80MM,N,0,N,N,N,N,,All Other,1,277,Vermilion,
Walmart,Field Facility,Supercenter,310,B - CENTRAL,13 - LOUISIANA/ S MS,132,729 Odd Fellows Rd,Crowley,LA,Louisiana,70526,30.2308570971889,-92.3635536062866,U,SuperCenter,5,"Old,more than 13 months since re-grand",1980-09-30,,183597,0,NOT ASSIGNED,WM $60MM - $80MM,N,0,N,N,N,N,,All Other,1,248,Acadia,
Walmart,Field Facility,Supercenter,311,B - CENTRAL,13 - LOUISIANA/ S MS,129,200 Northwest Blvd,Franklin,LA,Louisiana,70538,29.8133413492008,-91.5118654155171,R,Regular Wal-Mart,2,"New,open 13 months or more",1980-10-13,,55480,0,NOT ASSIGNED,WM $20MM - $40MM,N,0,N,N,N,N,,All Other,1,89,Saint Mary,
Walmart,Field Facility,Supercenter,312,B - CENTRAL,13 - LOUISIANA/ S MS,134,891 E Lasalle St,Ville Platte,LA,Louisiana,70586,30.6856024941769,-92.2626840604685,U,SuperCenter,5,"Old,more than 13 months since re-grand",1980-11-18,,104939,0,NOT ASSIGNED,WM $40MM - $60MM,N,0,N,N,N,N,,All Other,1,189,Evangeline,
Walmart,Field Facility,Supercenter,313,B - CENTRAL,43 - S IL/ W INDIANA,340,2700 Ridge Point Dr,High Ridge,MO,Missouri,63049,38.4628186724406,-90.5236033547324,U,SuperCenter,5,"Old,more than 13 months since re-grand",1981-04-07,,160707,0,NOT ASSIGNED,WM >=$80MM,N,0,N,N,N,N,,All Other,1,311,Jefferson,
Walmart,Field Facility,Supercenter,314,A - SOUTHEAST,12 - TENNESSEE,151,1224 Huntsville Hwy,Fayetteville,TN,Tennessee,37334,35.136823243445,-86.5669938016762,U,SuperCenter,5,"Old,more than 13 months since re-grand",1979-11-20,,178420,0,NOT ASSIGNED,WM $60MM - $80MM,N,0,N,N,N,N,,All Other,1,255,Lincoln,
Walmart,Field Facility,Supercenter,315,A - SOUTHEAST,14 - NORTH MISS/ ALABAMA,3,2453 2nd Ave E,Oneonta,AL,Alabama,35121,33.9724417196788,-86.4484355038394,U,SuperCenter,5,"Old,more than 13 months since re-grand",1980-10-14,,149711,0,NOT ASSIGNED,WM $60MM - $80MM,N,0,N,N,N,N,,All Other,1,216,Blount,
Walmart,Field Facility,Supercenter,316,A - SOUTHEAST,14 - NORTH MISS/ ALABAMA,3,973 Gilbert Ferry Rd SE,Attalla,AL,Alabama,35954,33.996962961367,-86.0933861219463,U,SuperCenter,5,"Old,more than 13 months since re-grand",1980-11-18,,156421,0,NOT ASSIGNED,WM $60MM - $80MM,N,0,N,N,N,N,,All Other,1,287,Etowah,
Walmart,Field Facility,Supercenter,317,B - CENTRAL,43 - S IL/ W INDIANA,272,201 Mattes Ave,Vandalia,IL,Illinois,62471,38.9655173186684,-89.1324693354735,U,SuperCenter,5,"Old,more than 13 months since re-grand",1981-09-15,,155078,0,NOT ASSIGNED,WM $60MM - $80MM,N,0,N,N,N,N,,All Other,1,231,Fayette,
Walmart,Field Facility,Supercenter,318,B - CENTRAL,42 - ARKANSAS/ NE OK,325,109 Wp Malone Dr,Arkadelphia,AR,Arkansas,71923,34.1192826801282,-93.0947104664735,U,SuperCenter,5,"Old,more than 13 months since re-grand",1980-04-15,,151980,0,NOT ASSIGNED,WM $60MM - $80MM,N,0,N,N,N,Y,,All Other,1,295,CLARK,
Walmart,Field Facility,Supercenter,319,B - CENTRAL,40 - MISSOURI/ E KS,361,2015 W Foxwood Dr,Raymore,MO,Missouri,64083,38.8125188933748,-94.4896843584716,U,SuperCenter,5,"Old,more than 13 months since re-grand",1980-06-24,,199970,0,NOT ASSIGNED,WM >=$80MM,N,0,N,N,N,N,,All Other,1,357,Cass,
Walmart,Field Facility,Supercenter,320,B - CENTRAL,8 - SOUTH TEXAS,76,600 S State Highway 6,Marlin,TX,Texas,76661,31.3101819631816,-96.8990906400963,R,Regular Wal-Mart,2,"New,open 13 months or more",1980-10-14,,46302,0,NOT ASSIGNED,WM <$20MM,N,0,N,N,N,N,,All Other,1,82,Falls,
Walmart,Field Facility,Supercenter,321,B - CENTRAL,6 - HOUSTON,85,203 US Loop 290 West,Brenham,TX,Texas,77833,30.1420812531396,-96.3931107555203,U,SuperCenter,5,"Old,more than 13 months since re-grand",1980-11-11,,151397,0,NOT ASSIGNED,WM $60MM - $80MM,N,0,N,N,N,N,,All Other,1,298,WASHINGTON,
Walmart,Field Facility,Supercenter,322,B - CENTRAL,6 - HOUSTON,85,2200 Briarcrest Dr,Bryan,TX,Texas,77802,30.6588040983135,-96.3323915097113,U,SuperCenter,5,"Old,more than 13 months since re-grand",1982-06-29,,207589,0,NOT ASSIGNED,WM >=$80MM,N,0,N,N,N,Y,,All Other,1,356,Brazos,
Walmart,Field Facility,Supercenter,323,B - CENTRAL,13 - LOUISIANA/ S MS,127,7292 Hwy #509,Mansfield,LA,Louisiana,71052,32.00503,-93.66346,U,SuperCenter,5,"Old,more than 13 months since re-grand",1980-09-03,,99667,0,NOT ASSIGNED,WM $20MM - $40MM,N,0,N,N,N,N,,All Other,1,121,DE SOTO,
Walmart,Field Facility,Supercenter,324,B - CENTRAL,42 - ARKANSAS/ NE OK,356,105 W Highway 16,Bristow,OK,Oklahoma,74010,35.841807943058,-96.3950617418833,U,SuperCenter,5,"Old,more than 13 months since re-grand",1981-11-03,,104902,0,NOT ASSIGNED,WM $20MM - $40MM,N,0,N,N,N,N,,All Other,1,158,Creek,
Walmart,Field Facility,Supercenter,325,B - CENTRAL,40 - MISSOURI/ E KS,360,908 Walton Way,Richmond,MO,Missouri,64085,39.2641380326145,-93.9611802425917,U,SuperCenter,5,"Old,more than 13 months since re-grand",1980-10-14,,155530,0,NOT ASSIGNED,WM $40MM - $60MM,N,0,N,N,N,N,,All Other,1,202,Ray,
Walmart,Field Facility,Supercenter,326,B - CENTRAL,40 - MISSOURI/ E KS,361,1180 W 19th St,Higginsville,MO,Missouri,64037,39.0769770946468,-93.7364308447026,R,Regular Wal-Mart,2,"New,open 13 months or more",1980-10-21,,50139,0,NOT ASSIGNED,WM <$20MM,N,0,N,N,N,N,,All Other,1,80,Lafayette,
Walmart,Field Facility,Supercenter,327,B - CENTRAL,42 - ARKANSAS/ NE OK,347,1107 S Main St,Jay,OK,Oklahoma,74346,36.4184548754528,-94.8055377603545,R,Regular Wal-Mart,2,"New,open 13 months or more",1980-08-05,,34875,0,NOT ASSIGNED,WM <$20MM,N,0,N,N,N,N,,All Other,1,59,Delaware,
Walmart,Field Facility,Supercenter,328,B - CENTRAL,43 - S IL/ W INDIANA,341,961 N Market St,Waterloo,IL,Illinois,62298,38.3591366679348,-90.1551446678002,U,SuperCenter,5,"Old,more than 13 months since re-grand",1981-04-21,,150031,0,NOT ASSIGNED,WM $60MM - $80MM,N,0,N,N,N,N,,All Other,1,235,Monroe,
Walmart,Field Facility,Supercenter,329,A - SOUTHEAST,14 - NORTH MISS/ ALABAMA,3,5560 McClellan Blvd,Anniston,AL,Alabama,36206,33.7194143751306,-85.8180701347806,U,SuperCenter,5,"Old,more than 13 months since re-grand",1980-04-15,,203651,0,NOT ASSIGNED,WM $60MM - $80MM,N,0,N,N,N,N,,All Other,1,295,Calhoun,
Walmart,Field Facility,Supercenter,330,B - CENTRAL,6 - HOUSTON,84,9002 N Navarro St,Victoria,TX,Texas,77904,28.8787741514183,-96.9965288380337,U,SuperCenter,5,"Old,more than 13 months since re-grand",1980-11-11,,204482,0,NOT ASSIGNED,WM $60MM - $80MM,N,0,N,N,N,N,,All Other,1,277,Victoria,
Walmart,Field Facility,Supercenter,331,B - CENTRAL,13 - LOUISIANA/ S MS,66,525 N Cities Service Hwy,Sulphur,LA,Louisiana,70663,30.2328289164758,-93.3256936560234,U,SuperCenter,5,"Old,more than 13 months since re-grand",1981-02-10,,199026,0,NOT ASSIGNED,WM >=$80MM,N,0,N,N,N,N,,All Other,1,358,Calcasieu,
Walmart,Field Facility,Supercenter,332,A - SOUTHEAST,14 - NORTH MISS/ ALABAMA,5,6140A Univ Drive,Huntsville,AL,Alabama,35806,34.76564,-86.68351,U,SuperCenter,5,"Old,more than 13 months since re-grand",1981-10-13,,199026,0,NOT ASSIGNED,WM $60MM - $80MM,N,0,N,N,N,N,,All Other,1,270,MADISON,
Walmart,Field Facility,Supercenter,333,E - NORTHEAST,"41 - KENTUCKY, WEST VIRGINIA",254,1701 N Main St,Beaver Dam,KY,Kentucky,42320,37.4293188763078,-86.8830240151022,U,SuperCenter,5,"Old,more than 13 months since re-grand",1981-02-03,,154450,0,NOT ASSIGNED,WM $60MM - $80MM,N,0,N,N,N,N,,All Other,1,227,Ohio,
Walmart,Field Facility,Supercenter,334,B - CENTRAL,25 - NORTHERN ILLINOIS,275,18600 Shipman Blackt,Carlinville,IL,Illinois,62626,39.27486,-89.89318,U,SuperCenter,5,"Old,more than 13 months since re-grand",1980-11-11,,99667,0,NOT ASSIGNED,WM $20MM - $40MM,N,0,N,N,N,N,,All Other,1,131,MACOUPIN,
Walmart,Field Facility,Supercenter,335,A - SOUTHEAST,12 - TENNESSEE,146,2196 Emporium Dr,Jackson,TN,Tennessee,38305,35.6685694195504,-88.854121201381,U,SuperCenter,5,"Old,more than 13 months since re-grand",1980-11-11,,199026,0,NOT ASSIGNED,WM >=$80MM,N,0,N,N,N,N,,All Other,1,356,Madison,
